,time,xpos,ypos,zpos,xdot,ydot,zdot,roll,pitch,yaw,ang_roll,ang_pitch,ang_yaw,in_roll,in_pitch,in_yaw,target_xpos,target_ypos,target_zpos,payload_temp,energy,adcs_mode,payload_mode
0,0.0,0.0,0.0,-400000.0,7672.555646341823,0.0,0.0,0.0,-1.5707963267948966,0.0,0.0,0.0,0.0,0.0,0.0,0.0,0.0,0.0,0.0,18.0,35.0,1.0,0.0
1,0.04,306.9022258536729,0.0,-400000.0,7672.555646341823,0.0,0.0,0.0002513274122871835,-1.5705449993826093,0.0,0.023624776754995247,0.023624776754995247,0.0,0.12217304763960307,-1.3089969389957472,0.0,0.0,0.0,0.0,16.87197432881071,35.019999999999996,1.0,0.0
2,0.08,613.8044517073458,0.0,-400000.0,7672.555646341823,0.0,0.0,0.0013909464305621882,-1.5694053803643344,0.0,0.04191980387406356,0.04191980387406356,0.0,0.12217304763960307,-1.3089969389957472,0.0,0.0,0.0,0.0,16.87197432881071,35.03999999999999,1.0,0.0
3,0.12,920.7066775610188,0.0,-400000.0,7672.555646341823,0.0,0.0,0.0032184584685141615,-1.5675778683263824,0.0,0.056087472875070064,0.056087472875070064,0.0,0.12217304763960307,-1.3089969389957472,0.0,0.0,0.0,0.0,16.87197432881071,35.05999999999999,1.0,0.0
4,0.16,1227.6089034146917,0.0,-400000.0,7672.555646341823,0.0,0.0,0.00557867486090398,-1.5652176519339926,0.0,0.0670589157494495,0.0670589157494495,0.0,0.12217304763960307,-1.3089969389957472,0.0,0.0,0.0,0.0,16.87197432881071,35.079999999999984,1.0,0.0
5,0.2,1534.5111292683646,0.0,-400000.0,7672.555646341823,0.0,0.0,0.008351417505370464,-1.562444909289526,0.0,0.07555520111136893,0.07555520111136893,0.0,0.12217304763960307,-1.3089969389957472,0.0,0.0,0.0,0.0,16.87197432881071,35.09999999999998,1.0,0.0
6,0.24,1841.4133551220375,0.0,-400000.0,7672.555646341823,0.0,0.0,0.011443620479445119,-1.5593527063154515,0.0,0.08213472449563934,0.08213472449563934,0.0,0.12217304763960307,-1.3089969389957472,0.0,0.0,0.0,0.0,16.89740108900093,35.119999999999976,1.0,0.0
7,0.28,2148.3155809757104,0.0,-400000.0,7672.555646341823,0.0,0.0,0.014783213532768342,-1.5560131132621282,0.0,0.08722990740441834,0.08722990740441834,0.0,0.12217304763960307,-1.3089969389957472,0.0,0.0,0.0,0.0,16.89740108900093,35.13999999999997,1.0,0.0
8,0.32,2455.2178068293833,0.0,-400000.0,7672.555646341823,0.0,0.0,0.018314385463461653,-1.5524819413314348,0.0,0.09117561704897681,0.09117561704897681,0.0,0.12217304763960307,-1.3089969389957472,0.0,0.0,0.0,0.0,16.89740108900093,35.15999999999997,1.0,0.0
9,0.36,2762.1200326830567,0.0,-400000.0,7672.555646341823,0.0,0.0,0.021993916076790365,-1.548802410718106,0.0,0.09423117459772289,0.09423117459772289,0.0,0.12217304763960307,-1.3089969389957472,0.0,0.0,0.0,0.0,16.89740108900093,35.179999999999964,1.0,0.0
10,0.4,3069.02225853673,0.0,-400000.0,7672.555646341823,0.0,0.0,0.02578833565395193,-1.5450079911409444,0.0,0.09659739836347185,0.09659739836347185,0.0,0.12217304763960307,-1.3089969389957472,0.0,0.0,0.0,0.0,16.89740108900093,35.19999999999996,1.0,0.0
11,0.44,3375.9244843904034,0.0,-400000.0,7672.555646341823,0.0,0.0,0.029671725244705655,-1.5411246015501907,0.0,0.09842980204766784,0.09842980204766784,0.0,0.12217304763960307,-1.3089969389957472,0.0,0.0,0.0,0.0,16.54534167379124,35.219999999999956,1.0,0.0
12,0.48,3682.826710244077,0.0,-400000.0,7672.555646341823,0.0,0.0,0.03362401321398514,-1.5371723135809112,0.0,0.09984881546070921,0.09984881546070921,0.0,0.12217304763960307,-1.3089969389957472,0.0,0.0,0.0,0.0,16.54534167379124,35.23999999999995,1.0,0.0
13,0.52,3989.72893609775,0.0,-400000.0,7672.555646341823,0.0,0.0,0.037629656087595,-1.5331666707073013,0.0,0.10094769944776845,0.10094769944776845,0.0,0.12217304763960307,-1.3089969389957472,0.0,0.0,0.0,0.0,16.54534167379124,35.25999999999995,1.0,0.0
14,0.56,4296.631161951424,0.0,-400000.0,7672.555646341823,0.0,0.0,0.041676616999118274,-1.5291197097957778,0.0,0.10179867520734713,0.10179867520734713,0.0,0.12217304763960307,-1.3089969389957472,0.0,0.0,0.0,0.0,16.54534167379124,35.279999999999944,1.0,0.0
15,0.6,4603.533387805097,0.0,-400000.0,7672.555646341823,0.0,0.0,0.04575557459920171,-1.5250407521956946,0.0,0.10245767083556485,0.10245767083556485,0.0,0.12217304763960307,-1.3089969389957472,0.0,0.0,0.0,0.0,16.54534167379124,35.29999999999994,1.0,0.0
16,0.64,4910.43561365877,0.0,-400000.0,7672.555646341823,0.0,0.0,0.04985931043490613,-1.5209370163599902,0.0,0.10296799705005667,0.10296799705005667,0.0,0.12217304763960307,-1.3089969389957472,0.0,0.0,0.0,0.0,19.547717285247266,35.319999999999936,1.0,0.0
17,0.68,5217.337839512444,0.0,-400000.0,7672.555646341823,0.0,0.0,0.053982234536275445,-1.516814092258621,0.0,0.10336319367055913,0.10336319367055913,0.0,0.12217304763960307,-1.3089969389957472,0.0,0.0,0.0,0.0,19.547717285247266,35.33999999999993,1.0,0.0
18,0.72,5524.240065366117,0.0,-400000.0,7672.555646341823,0.0,0.0,0.05811417754546045,-1.512676308764321,0.0,0.10274812083543304,0.10366923393347624,0.0,0.12217304763960307,-1.3089969389957472,0.0,0.0,0.0,0.0,19.547717285247266,35.35999999999993,1.0,0.0
19,0.76,5831.14229121979,0.0,-400000.0,7672.555646341823,0.0,0.0,0.06220811882121165,-1.508527018156135,0.0,0.10087577317980966,0.10390623151307925,0.0,0.12217304763960307,-1.3089969389957472,0.0,0.0,0.0,0.0,19.547717285247266,35.379999999999924,1.0,0.0
20,0.8,6138.044517073464,0.0,-400000.0,7672.555646341823,0.0,0.0,0.0662169216365187,-1.504368816438956,0.0,0.09804717787914094,0.10408976243872381,0.0,0.12217304763960307,-1.3089969389957472,0.0,0.0,0.0,0.0,19.547717285247266,35.39999999999992,1.0,0.0
21,0.84,6444.946742927137,0.0,-400000.0,7672.555646341823,0.0,0.0,0.0701049375783855,-1.5002037139589728,0.0,0.0945103177486856,0.10423188878754296,0.0,0.12217304763960307,-1.3089969389957472,0.0,0.0,0.0,0.0,19.962738162551005,35.419999999999916,1.0,0.0
22,0.88,6751.8489687808105,0.0,-400000.0,7672.555646341823,0.0,0.0,0.07384597072195645,-1.496033267528274,0.0,0.09046840136540289,0.10434195143206851,0.0,0.12217304763960307,-1.3089969389957472,0.0,0.0,0.0,0.0,19.962738162551005,35.43999999999991,1.0,0.0
23,0.92,7058.751194634484,0.0,-400000.0,7672.555646341823,0.0,0.0,0.07742156009019913,-1.4918586827421412,0.0,0.08608692660138416,0.1044271839439891,0.0,0.12217304763960307,-1.3089969389957472,0.0,0.0,0.0,0.0,19.962738162551005,35.45999999999991,1.0,0.0
24,0.96,7365.653420488157,0.0,-400000.0,7672.555646341823,0.0,0.0,0.08081953388558903,-1.48768089321356,0.0,0.0814997064110652,0.1044931880012204,0.0,0.12217304763960307,-1.3089969389957472,0.0,0.0,0.0,0.0,19.962738162551005,35.479999999999905,1.0,0.0
25,1.0,7672.555646341831,0.0,-400000.0,7672.555646341823,0.0,0.0,0.08403279549615954,-1.483500621932427,0.0,0.0768140027560074,0.10454430154314033,0.0,0.12217304763960307,-1.3089969389957472,0.0,0.0,0.0,0.0,19.962738162551005,35.4999999999999,1.0,0.0
26,1.04,7979.457872195504,0.0,-400000.0,7672.555646341823,0.0,0.0,0.08705830690750181,-1.4793184287821177,0.0,0.0721148946496718,0.10458388387000311,0.0,0.12217304763960307,-1.3089969389957472,0.0,0.0,0.0,0.0,19.054529212926,35.5199999999999,1.0,0.0
27,1.08,8286.360098049177,0.0,-400000.0,7672.555646341823,0.0,0.0,0.08989624001296503,-1.4751347473363186,0.0,0.06746898905971009,0.10461453642392565,0.0,0.12217304763960307,-1.3089969389957472,0.0,0.0,0.0,0.0,19.054529212926,35.53999999999989,1.0,0.0
28,1.12,8593.262323902849,0.0,-400000.0,7672.555646341823,0.0,0.0,0.09254927050906603,-1.4709499133544917,0.0,0.06292756846807884,0.10463827376168326,0.0,0.12217304763960307,-1.3089969389957472,0.0,0.0,0.0,0.0,19.054529212926,35.55999999999989,1.0,0.0
29,1.16,8900.16454975652,0.0,-400000.0,7672.555646341823,0.0,0.0,0.09502199268113573,-1.4667641868487653,0.0,0.05852925595616891,0.10465665595604276,0.0,0.12217304763960307,-1.3089969389957472,0.0,0.0,0.0,0.0,19.054529212926,35.579999999999885,1.0,0.0
30,1.2,9207.066775610192,0.0,-400000.0,7672.555646341823,0.0,0.0,0.09732043650293816,-1.4625777691725308,0.0,0.054302267488960346,0.10467089112735477,0.0,0.12217304763960307,-1.3089969389957472,0.0,0.0,0.0,0.0,19.054529212926,35.59999999999988,1.0,0.0
31,1.24,9513.969001463864,0.0,-400000.0,7672.555646341823,0.0,0.0,0.09945167116061507,-1.458390816253855,0.0,0.05026631138913804,0.10468191484401877,0.0,0.12217304763960307,-1.3089969389957472,0.0,0.0,0.0,0.0,18.243373914781426,35.61999999999988,1.0,0.0
32,1.28,9820.871227317535,0.0,-400000.0,7672.555646341823,0.0,0.0,0.10142348142417101,-1.4542034488434328,0.0,0.04643418661923714,0.10469045161020339,0.0,0.12217304763960307,-1.3089969389957472,0.0,0.0,0.0,0.0,18.243373914781426,35.63999999999987,1.0,0.0
33,1.32,10127.773453171207,0.0,-400000.0,7672.555646341823,0.0,0.0,0.1032441052794299,-1.450015760450602,0.0,0.0428131242534102,0.10469706248193675,0.0,0.12217304763960307,-1.3089969389957472,0.0,0.0,0.0,0.0,18.243373914781426,35.65999999999987,1.0,0.0
34,1.36,10434.675679024878,0.0,-400000.0,7672.555646341823,0.0,0.0,0.10492202294385475,-1.445827823488994,0.0,0.03940591026921118,0.10470218194100706,0.0,0.12217304763960307,-1.3089969389957472,0.0,0.0,0.0,0.0,18.243373914781426,35.679999999999865,1.0,0.0
35,1.4000000000000001,10741.57790487855,0.0,-400000.0,7672.555646341823,0.0,0.0,0.10646578885888179,-1.441639694035725,0.0,0.03621182239254921,0.10470614645011111,0.0,0.12217304763960307,-1.3089969389957472,0.0,0.0,0.0,0.0,18.243373914781426,35.69999999999986,1.0,0.0
36,1.44,11048.480130732221,0.0,-400000.0,7672.555646341823,0.0,0.0,0.10788389951245224,-1.4374514155169138,0.0,0.03322740907157301,0.10470921656596129,0.0,0.12217304763960307,-1.3089969389957472,0.0,0.0,0.0,0.0,17.833336863404426,35.71999999999986,1.0,0.0
37,1.48,11355.382356585893,0.0,-400000.0,7672.555646341823,0.0,0.0,0.10918469102680112,-1.4332630215617466,0.0,0.030447134638596322,0.10471159406367565,0.0,0.12217304763960307,-1.3089969389957472,0.0,0.0,0.0,0.0,17.833336863404426,35.73999999999985,1.0,0.0
38,1.52,11662.284582439564,0.0,-400000.0,7672.555646341823,0.0,0.0,0.11037626137301842,-1.429074538212665,0.0,0.027863911257202226,0.10471343519790567,0.0,0.12217304763960307,-1.3089969389957472,0.0,0.0,0.0,0.0,17.833336863404426,35.75999999999985,1.0,0.0
39,1.56,11969.186808293236,0.0,-400000.0,7672.555646341823,0.0,0.0,0.11146641286684894,-1.4248859856369367,0.0,0.02546953526966372,0.1047148609722534,0.0,0.12217304763960307,-1.3089969389957472,0.0,0.0,0.0,0.0,17.833336863404426,35.779999999999845,1.0,0.0
40,1.6,12276.089034146908,0.0,-400000.0,7672.555646341823,0.0,0.0,0.11246261127817021,-1.4206973794520927,0.0,0.023255042992956793,0.10471596509190827,0.0,0.12217304763960307,-1.3089969389957472,0.0,0.0,0.0,0.0,17.833336863404426,35.79999999999984,1.0,0.0
41,1.6400000000000001,12582.99126000058,0.0,-400000.0,7672.555646341823,0.0,0.0,0.11337195846560655,-1.41650873175235,0.0,0.021210998803679975,0.104716820122169,0.0,0.12217304763960307,-1.3089969389957472,0.0,0.0,0.0,0.0,16.073038972460836,35.81999999999984,1.0,0.0
42,1.68,12889.89348585425,0.0,-400000.0,7672.555646341823,0.0,0.0,0.1142011759416513,-1.4123200519034693,0.0,0.019327726454356948,0.10471748225760291,0.0,0.12217304763960307,-1.3089969389957472,0.0,0.0,0.0,0.0,16.073038972460836,35.83999999999983,1.0,0.0
43,1.72,13196.795711707922,0.0,-400000.0,7672.555646341823,0.0,0.0,0.11495659719444774,-1.4081313471582964,0.0,0.017595492933605215,0.10471799501528294,0.0,0.12217304763960307,-1.3089969389957472,0.0,0.0,0.0,0.0,16.073038972460836,35.85999999999983,1.0,0.0
44,1.76,13503.697937561594,0.0,-400000.0,7672.555646341823,0.0,0.0,0.11564416695035386,-1.4039426231334347,0.0,0.01600465278386346,0.10471839209483035,0.0,0.12217304763960307,-1.3089969389957472,0.0,0.0,0.0,0.0,16.073038972460836,35.879999999999825,1.0,0.0
45,1.8,13810.600163415265,0.0,-400000.0,7672.555646341823,0.0,0.0,0.11626944586550843,-1.3997538841783819,0.0,0.01454575959104389,0.10471869959323186,0.0,0.12217304763960307,-1.3089969389957472,0.0,0.0,0.0,0.0,16.073038972460836,35.89999999999982,1.0,0.0
46,1.84,14117.502389268937,0.0,-400000.0,7672.555646341823,0.0,0.0,0.11683761939251842,-1.3955651336613892,0.0,0.013209650333130258,0.104718937719994,0.0,0.12217304763960307,-1.3089969389957472,0.0,0.0,0.0,0.0,16.873462339607478,35.91999999999982,1.0,0.0
47,1.8800000000000001,14424.404615122608,0.0,-400000.0,7672.555646341823,0.0,0.0,0.11735350978673363,-1.3913763741908303,0.0,0.011987507395590246,0.10471912212535861,0.0,0.12217304763960307,-1.3089969389957472,0.0,0.0,0.0,0.0,16.873462339607478,35.93999999999981,1.0,0.0
48,1.92,14731.30684097628,0.0,-400000.0,7672.555646341823,0.0,0.0,0.11782159040107816,-1.3871876077866294,0.0,0.01087090230993198,0.10471926492887296,0.0,0.12217304763960307,-1.3089969389957472,0.0,0.0,0.0,0.0,16.873462339607478,35.95999999999981,1.0,0.0
49,1.96,15038.209066829952,0.0,-400000.0,7672.555646341823,0.0,0.0,0.11824600157399029,-1.3829988360130165,0.0,0.0098518246300124,0.10471937551591447,0.0,0.12217304763960307,-1.3089969389957472,0.0,0.0,0.0,0.0,16.873462339607478,35.979999999999805,1.0,0.0
50,2.0,15345.111292683623,0.0,-400000.0,7672.555646341823,0.0,0.0,0.11863056754591496,-1.378810060081331,0.0,0.008922698813416924,0.10471946115451941,0.0,0.12217304763960307,-1.3089969389957472,0.0,0.0,0.0,0.0,16.873462339607478,35.9999999999998,1.0,0.0
51,2.04,15652.013518537295,0.0,-400000.0,7672.555646341823,0.0,0.0,0.11897881394963672,-1.3746212811060128,0.0,0.008076391509085823,0.10434252083326506,0.0,0.12217304763960307,-1.3089969389957472,0.0,0.0,0.0,0.0,19.194194269268404,36.0199999999998,1.0,0.0
52,2.08,15958.915744390966,0.0,-400000.0,7672.555646341823,0.0,0.0,0.11929398551166222,-1.370461754691085,0.0,0.007306211255887967,0.10263449242839458,0.0,0.12217304763960307,-1.3089969389957472,0.0,0.0,0.0,0.0,19.194194269268404,36.03999999999979,1.0,0.0
53,2.12,16265.817970244638,0.0,-400000.0,7672.555646341823,0.0,0.0,0.11957906367854419,-1.3663814244392742,0.0,0.00660590226013363,0.09991036039510887,0.0,0.12217304763960307,-1.3089969389957472,0.0,0.0,0.0,0.0,19.194194269268404,36.05999999999979,1.0,0.0
54,2.16,16572.72019609831,0.0,-400000.0,7672.555646341823,0.0,0.0,0.11983678394578504,-1.3624182107408216,0.0,0.005969633634533326,0.09642981566663948,0.0,0.12217304763960307,-1.3089969389957472,0.0,0.0,0.0,0.0,19.194194269268404,36.079999999999785,1.0,0.0
55,2.2,16879.622421951983,0.0,-400000.0,7672.555646341823,0.0,0.0,0.12006965271974122,-1.3586001330934736,0.0,0.005391985239486312,0.09240586027437887,0.0,0.12217304763960307,-1.3089969389957472,0.0,0.0,0.0,0.0,19.194194269268404,36.09999999999978,1.0,0.0
56,2.24,17186.524647805654,0.0,-400000.0,7672.555646341823,0.0,0.0,0.12027996358645741,-1.3549471012484051,0.0,0.004867931063477299,0.08801215798216185,0.0,0.12217304763960307,-1.3089969389957472,0.0,0.0,0.0,0.0,18.940640845525845,36.11999999999978,1.0,0.0
57,2.2800000000000002,17493.426873659326,0.0,-400000.0,7672.555646341823,0.0,0.0,0.12046981289703548,-1.3514724235241662,0.0,0.004392820907312793,0.08338930627894978,0.0,0.12217304763960307,-1.3089969389957472,0.0,0.0,0.0,0.0,18.940640845525845,36.13999999999977,1.0,0.0
58,2.32,17800.329099512997,0.0,-400000.0,7672.555646341823,0.0,0.0,0.12064111460822369,-1.3481840738637754,0.0,0.0039623609922415735,0.07865018124423148,0.0,0.12217304763960307,-1.3089969389957472,0.0,0.0,0.0,0.0,18.940640845525845,36.15999999999977,1.0,0.0
59,2.36,18107.23132536667,0.0,-400000.0,7672.555646341823,0.0,0.0,0.12079561434044493,-1.3450857533634673,0.0,0.003572593990638589,0.07388448614239435,0.0,0.12217304763960307,-1.3089969389957472,0.0,0.0,0.0,0.0,18.940640845525845,36.179999999999765,1.0,0.0
60,2.4,18414.13355122034,0.0,-400000.0,7672.555646341823,0.0,0.0,0.12067861646220576,-1.342056369272226,0.0002513274122871835,-0.02085815996864472,0.08084092282366542,0.023624776754995247,0.0,-0.992941292965304,0.13506222444508484,276728.0,35123.0,0.0,18.940640845525845,36.15999999999977,2.0,1.0
61,2.44,18721.035777074012,0.0,-400000.0,7672.555646341823,0.0,0.0,0.11964302223509754,-1.338765423161769,0.0013909464305621882,-0.03977733583471371,0.08622798738964176,0.04191980387406356,0.0,-0.9934749030827842,0.13522083806311272,276728.0,35123.0,0.0,20.097780514240615,36.13999999999977,2.0,1.0
62,2.48,19027.938002927684,0.0,-400000.0,7672.555646341823,0.0,0.0,0.11789606699542513,-1.3352719234236312,0.0032184584685141615,-0.05442834562539754,0.09039973018953382,0.056087472875070064,0.0,-0.9940088728464851,0.13537982238132312,276728.0,35123.0,0.0,20.097780514240615,36.11999999999978,2.0,1.0
63,2.52,19334.840228781355,0.0,-400000.0,7672.555646341823,0.0,0.0,0.11559823378762299,-1.3316215661562174,0.00557867486090398,-0.0657740876073031,0.09363032781377023,0.0670589157494495,0.0,-0.9945432022744152,0.13553917869273133,276728.0,35123.0,0.0,20.097780514240615,36.09999999999978,2.0,1.0
64,2.56,19641.742454635027,0.0,-400000.0,7672.555646341823,0.0,0.0,0.1128738006813012,-1.3278497384181325,0.008351417505370464,-0.07456023019809077,0.0961321026139789,0.07555520111136893,0.0,-0.9950778913835382,0.13569890829633502,276728.0,35123.0,0.0,20.097780514240615,36.079999999999785,2.0,1.0
65,2.6,19948.6446804887,0.0,-400000.0,7672.555646341823,0.0,0.0,0.1098190086135658,-1.3239838439475597,0.011443620479445119,-0.08136421902039674,0.09806947701926051,0.08213472449563934,0.0,-0.9956129401897684,0.13585901249714857,276728.0,35123.0,0.0,20.097780514240615,36.05999999999979,2.0,1.0
66,2.64,20255.54690634237,0.0,-400000.0,7672.555646341823,0.0,0.0,0.10650838656611171,-1.3200451041993484,0.014783213532768342,-0.08663322796439048,0.09956977975871058,0.08722990740441834,0.0,-0.9961483487079673,0.1360194926062378,276728.0,35123.0,0.0,20.025466877975937,36.03999999999979,2.0,1.0
67,2.68,20562.44913219604,0.0,-400000.0,7672.555646341823,0.0,0.0,0.10299964978236345,-1.3160499530681335,0.018314385463461653,-0.09071354849061922,0.10073161420014072,0.09117561704897681,0.0,-0.9966841169519388,0.13618034994075479,276728.0,35123.0,0.0,20.025466877975937,36.0199999999998,2.0,1.0
68,2.72,20869.351358049713,0.0,-400000.0,7672.555646341823,0.0,0.0,0.09933749294682898,-1.312011116961921,0.021993916076790365,-0.09387334870613077,0.10163133879158422,0.09423117459772289,0.0,-0.9972202449344255,0.13634158582397302,276728.0,35123.0,0.0,20.025466877975937,35.9999999999998,2.0,1.0
69,2.7600000000000002,21176.253583903384,0.0,-400000.0,7672.555646341823,0.0,0.0,0.09555652762319128,-1.3079384512110703,0.02578833565395193,-0.09632029799302291,0.10232808551519806,0.09659739836347185,0.0,-0.9977567326671043,0.13650320158532275,276728.0,35123.0,0.0,20.025466877975937,35.979999999999805,2.0,1.0
70,2.8000000000000003,21483.155809757056,0.0,-400000.0,7672.555646341823,0.0,0.0,0.09168355700636643,-1.3038395877834117,0.029671725244705655,-0.09821521552079218,0.10286764617796462,0.09842980204766784,0.0,-0.9982935801605824,0.13666519856042667,276728.0,35123.0,0.0,20.025466877975937,35.95999999999981,2.0,1.0
71,2.84,21790.058035610728,0.0,-400000.0,7672.555646341823,0.0,0.0,0.08773933749049746,-1.2997204368748332,0.03362401321398514,-0.0996826396542967,0.10328548195521105,0.09984881546070921,0.0,-0.9988307874243931,0.13682757809113566,276728.0,35123.0,0.0,19.900528758871566,35.93999999999981,2.0,1.0
72,2.88,22096.9602614644,0.0,-400000.0,7672.555646341823,0.0,0.0,0.08373994282720873,-1.2955855753410301,0.037629656087595,-0.10081901290328261,0.10360905398111069,0.10094769944776845,0.0,-0.9993683544669919,0.13699034152556497,276728.0,35123.0,0.0,19.900528758871566,35.91999999999982,2.0,1.0
73,2.92,22403.86248731807,0.0,-400000.0,7672.555646341823,0.0,0.0,0.07969782052975813,-1.291438547499053,0.041676616999118274,-0.10169902034729729,0.10385962815796736,0.10179867520734713,0.0,-0.9999062812957512,0.13715349021813059,276728.0,35123.0,0.0,19.900528758871566,35.89999999999982,2.0,1.0
74,2.96,22710.764713171742,0.0,-400000.0,7672.555646341823,0.0,0.0,0.07562260995241257,-1.2872820980680264,0.04575557459920171,-0.10238049811194226,0.10405367280052516,0.10245767083556485,0.0,-1.0004445679169578,0.1373170255295858,276728.0,35123.0,0.0,19.900528758871566,35.879999999999825,2.0,1.0
75,3.0,23017.666939025414,0.0,-400000.0,7672.555646341823,0.0,0.0,0.07152177581111635,-1.2831183525584393,0.04985931043490613,-0.10290823449288333,0.10420394097172192,0.10296799705005667,0.0,-1.000983214335807,0.13748094882705808,276728.0,35123.0,0.0,19.900528758871566,35.85999999999983,2.0,1.0
76,3.04,23324.569164879085,0.0,-400000.0,7672.555646341823,0.0,0.0,0.06740109878189675,-1.2789489569656154,0.053982234536275445,-0.1032539929337515,0.1043203086434967,0.10336319367055913,0.0,-1.0015222205563996,0.13764526148408615,276728.0,35123.0,0.0,20.115082790983685,35.83999999999983,2.0,1.0
77,3.08,23631.471390732757,0.0,-400000.0,7672.555646341823,0.0,0.0,0.06327610469197287,-1.2747751859483327,0.05812001803057565,-0.10239670958112952,0.1044104237685191,0.10366923393347624,0.0,-1.0020615865817373,0.13780996488065744,276728.0,35123.0,0.0,20.115082790983685,35.81999999999984,2.0,1.0
78,3.12,23938.37361658643,0.0,-400000.0,7672.555646341823,0.0,0.0,0.05919819443483129,-1.270598026602349,0.06226930863876154,-0.10034001757289825,0.10448020892133643,0.10390623151307925,0.0,-1.0026013124137176,0.1379750604032457,276728.0,35123.0,0.0,20.115082790983685,35.79999999999984,2.0,1.0
79,3.16,24245.2758424401,0.0,-400000.0,7672.555646341823,0.0,0.0,0.055212296274124925,-1.2664182433346198,0.0664275103559405,-0.09737475454193688,0.10453425054367817,0.10408976243872381,0.0,-1.0031413980531307,0.13814054944484883,276728.0,35123.0,0.0,20.115082790983685,35.779999999999845,2.0,1.0
80,3.2,24552.17806829377,0.0,-400000.0,7672.555646341823,0.0,0.0,0.05135224123676125,-1.2622364281018905,0.07059261283592369,-0.09374030186008882,0.10457610037601961,0.10422900117723997,0.0,-1.0036818434996548,0.13830643340502713,276728.0,35123.0,0.0,20.115082790983685,35.75999999999985,2.0,1.0
81,3.24,24859.080294147443,0.0,-400000.0,7672.555646341823,0.0,0.0,0.04764273781836957,-1.258053039315465,0.07475569216008608,-0.08963262310827647,0.10460850888618482,0.10329716297665925,0.0,-1.0042226487518517,0.13847271368994168,276728.0,35123.0,0.0,20.078021144184277,35.73999999999985,2.0,1.0
82,3.2800000000000002,25165.982520001115,0.0,-400000.0,7672.555646341823,0.0,0.0,0.044101037333352244,-1.2538684319690572,0.07886934660665565,-0.08521112836959577,0.10463360603645677,0.10122648836230026,0.0,-1.004763813807162,0.138639391712393,276728.0,35123.0,0.0,20.078021144184277,35.71999999999986,2.0,1.0
83,3.3200000000000003,25472.884745854786,0.0,-400000.0,7672.555646341823,0.0,0.0,0.04073833517225538,-1.2496828809697993,0.08289093529044085,-0.0806045287808908,0.10465304126962736,0.0982948589809572,0.0,-1.0053053386619015,0.13880646889186016,276728.0,35123.0,0.0,20.078021144184277,35.69999999999986,2.0,1.0
84,3.36,25779.786971708458,0.0,-400000.0,7672.555646341823,0.0,0.0,0.037560946883473764,-1.245496599205774,0.08678841918847849,-0.07591582340660184,0.10466809191419467,0.09473089616361997,0.0,-1.0058472233112572,0.13897394665453977,276728.0,35123.0,0.0,20.078021144184277,35.679999999999865,2.0,1.0
85,3.4,26086.68919756213,0.0,-400000.0,7672.555646341823,0.0,0.0,0.03457129251460503,-1.241309751537513,0.0905384707854797,-0.07122654110717623,0.10467974713334759,0.09072166372196197,0.0,-1.0063894677492813,0.13914182643338577,276728.0,35123.0,0.0,20.078021144184277,35.65999999999987,2.0,1.0
86,3.44,26393.5914234158,0.0,-400000.0,7672.555646341823,0.0,0.0,0.031768717915922624,-1.237122465633012,0.09412488014970044,-0.06660034327235378,0.10468877293505961,0.08641924495986741,0.0,-1.0069320719688886,0.13931010966814902,276728.0,35123.0,0.0,19.804522395690526,35.63999999999987,2.0,1.0
87,3.48,26700.493649269472,0.0,-400000.0,7672.555646341823,0.0,0.0,0.0291501776243848,-1.2329348403583666,0.09753721404257239,-0.06208607873707851,0.1046957625159054,0.08194635161785549,0.0,-1.0074750359618507,0.1394787978054175,276728.0,35123.0,0.0,19.804522395690526,35.61999999999988,2.0,1.0
88,3.52,27007.395875123144,0.0,-400000.0,7672.555646341823,0.0,0.0,0.02671080042442286,-1.2287469522754815,0.10076969075184965,-0.057720369598631936,0.10470117524731239,0.0774011010047571,0.0,-1.0080183597187928,0.1396478922986565,276728.0,35123.0,0.0,19.804522395690526,35.59999999999988,2.0,1.0
89,3.56,27314.298100976815,0.0,-400000.0,7672.555646341823,0.0,0.0,0.02444435564598638,-1.2245588606738953,0.10382023859550736,-0.05352979575025019,0.10470536686651395,0.07286107896728813,0.0,-1.0085620432291886,0.13981739460824952,276728.0,35123.0,0.0,19.804522395690526,35.579999999999885,2.0,1.0
90,3.6,27621.200326830487,0.0,-400000.0,7672.555646341823,0.0,0.0,0.022343635645451422,-1.2203706114674273,0.10668971058268238,-0.04953273651489464,0.10470861285642365,0.06838679022929113,0.0,-1.0091060864813557,0.1399873062015389,276728.0,35123.0,0.0,19.804522395690526,35.55999999999989,2.0,1.0
91,3.64,27928.10255268416,0.0,-400000.0,7672.555646341823,0.0,0.0,0.02040076766416776,-1.2161822402117386,0.10938123163459017,-0.04574091960810155,0.10471112655100971,0.06402458367197429,0.0,-1.0096504894624514,0.1401576285528672,276728.0,35123.0,0.0,19.875880332242446,35.53999999999989,2.0,1.0
92,3.68,28235.00477853783,0.0,-400000.0,7672.555646341823,0.0,0.0,0.018607466323312137,-1.2119937744411335,0.1118996581459835,-0.04216072061147905,0.10471307315609717,0.059809128040375484,0.0,-1.0101952521584685,0.14032836314361868,276728.0,35123.0,0.0,19.875880332242446,35.5199999999999,2.0,1.0
93,3.72,28541.9070043915,0.0,-400000.0,7672.555646341823,0.0,0.0,0.0169552363495566,-1.2078052354781772,0.11425113257875322,-0.038794250051136875,0.10471458060707689,0.05576550310232121,0.0,-1.0107403745542305,0.1404995114622611,276728.0,35123.0,0.0,19.875880332242446,35.4999999999999,2.0,1.0
94,3.7600000000000002,28848.809230245173,0.0,-400000.0,7672.555646341823,0.0,0.0,0.015435533696775451,-1.2036166398350638,0.11644271828656887,-0.035640259920106256,0.1047157479771156,0.05191096223929186,0.0,-1.0112858566333867,0.1406710750043878,276728.0,35123.0,0.0,19.875880332242446,35.479999999999905,2.0,1.0
95,3.8000000000000003,29155.711456098845,0.0,-400000.0,7672.555646341823,0.0,0.0,0.014039892002471065,-1.1994280002988371,0.11848210192756752,-0.032694896949406714,0.10471665198847356,0.04825641462681664,0.0,-1.0118316983784086,0.14084305527276,276728.0,35123.0,0.0,19.875880332242446,35.45999999999991,2.0,1.0
96,3.84,29462.613681952516,0.0,-400000.0,7672.555646341823,0.0,0.0,0.012760020265964477,-1.1952393267717831,0.12037735267833972,-0.029952326022238903,0.10471735205486916,0.04480766840268242,0.0,-1.0123778997705848,0.14101545377734967,276728.0,35123.0,0.0,20.174690406144247,35.43999999999991,2.0,1.0
97,3.88,29769.515907806188,0.0,-400000.0,7672.555646341823,0.0,0.0,0.011587876734570821,-1.1910506269222327,0.12213672905787003,-0.027405243755944123,0.10471789418628592,0.04156647038299089,0.0,-1.0129244607900163,0.14118827203538242,276728.0,35123.0,0.0,20.174690406144247,35.419999999999916,2.0,1.0
98,3.92,30076.41813365986,0.0,-400000.0,7672.555646341823,0.0,0.0,0.010515723213102866,-1.186861906688541,0.1237685255402352,-0.025045299374060494,0.10471831401285506,0.03853137284608852,0.0,-1.0134713814156124,0.1413615115713808,276728.0,35123.0,0.0,20.174690406144247,35.39999999999992,2.0,1.0
99,3.96,30383.32035951353,0.0,-400000.0,7672.555646341823,0.0,0.0,0.00953616335307102,-1.1826731706693705,0.12528095231057262,-0.02286343749283984,0.1047186391265502,0.03569845355589742,0.0,-1.0140186616250857,0.14153517391720788,276728.0,35123.0,0.0,20.174690406144247,35.379999999999924,2.0,1.0
100,4.0,30690.222585367203,0.0,-400000.0,7672.555646341823,0.0,0.0,0.008642167915269188,-1.178484422425925,0.12668204252680462,-0.02085017529816018,0.10471889089459573,0.033061911446493925,0.0,-1.014566301394948,0.14170926061211128,276728.0,35123.0,0.0,20.174690406144247,35.35999999999993,2.0,1.0
101,4.04,30997.124811220874,0.0,-400000.0,7672.555646341823,0.0,0.0,0.007827089519563396,-1.174295664716001,0.12797958231296094,-0.018995824742348958,0.10471908586377018,0.03061455715842917,0.0,-1.0151143007005048,0.14188377320276727,276728.0,35123.0,0.0,20.14430748210309,35.33999999999993,2.0,1.0
102,4.08,31304.027037074546,0.0,-400000.0,7672.555646341823,0.0,0.0,0.007084668986980647,-1.1701068996752362,0.129181059448691,-0.01729066880482283,0.10471923684789887,0.02834821483439975,0.0,-1.015662659515852,0.1420587132433254,276728.0,35123.0,0.0,20.14430748210309,35.319999999999936,2.0,1.0
103,4.12,31610.929262928217,0.0,-400000.0,7672.555646341823,0.0,0.0,0.006409035031566179,-1.165918128957468,0.13029362735101127,-0.015725099499951687,0.10471935377000813,0.02625404918683487,0.0,-1.0162113778138697,0.14223408229545334,276728.0,35123.0,0.0,20.14430748210309,35.29999999999994,2.0,1.0
104,4.16,31917.83148878189,0.0,-400000.0,7672.555646341823,0.0,0.0,0.005794698764254357,-1.1617293538434286,0.13132408148346,-0.014289724149244756,0.10471944431448954,0.024322829790184426,0.0,-1.016760455566219,0.14240988192838214,276728.0,35123.0,0.0,20.14430748210309,35.279999999999944,2.0,1.0
105,4.2,32224.73371463556,0.0,-400000.0,7672.555646341823,0.0,0.0,0.005236544220691438,-1.1575405753249164,0.13227884578756888,-0.012975445436061533,0.10471951443213595,0.02254514278057213,0.0,-1.0173098927433366,0.14258611371895158,276728.0,35123.0,0.0,20.14430748210309,35.25999999999995,2.0,1.0
106,4.24,32531.635940489232,0.0,-400000.0,7672.555646341823,0.0,0.0,0.004729815913101036,-1.153351794169981,0.13316396712308867,-0.011773519906398211,0.10471956873124133,0.020911558625493598,0.0,-1.0178596893144296,0.14276277925165615,276728.0,35123.0,0.0,20.12643230366785,35.23999999999995,2.0,1.0
107,4.28,32838.53816634291,0.0,-400000.0,7672.555646341823,0.0,0.0,0.004270104227333299,-1.1491630109733992,0.13398511603637095,-0.010675598848845131,0.10471961078046853,0.01941276332214286,0.0,-1.018409845247472,0.1429398801186912,276728.0,35123.0,0.0,20.12643230366785,35.219999999999956,2.0,1.0
108,4.32,33145.44039219658,0.0,-400000.0,7672.555646341823,0.0,0.0,0.0038533293353983224,-1.1449742261957665,0.13474759245904072,-0.009673754863219416,0.10471964334339008,0.018039659265077782,0.0,-1.0189603605091988,0.14311741791999932,276728.0,35123.0,0.0,20.12643230366785,35.19999999999996,2.0,1.0
109,4.36,33452.34261805025,0.0,-400000.0,7672.555646341823,0.0,0.0,0.0034757241669338386,-1.1407854401937678,0.1354563351787783,-0.008760496895668317,0.10471966856011652,0.01678344106660157,0.0,-1.0195112350651026,0.1432953942633174,276728.0,35123.0,0.0,20.12643230366785,35.179999999999964,2.0,1.0
110,4.4,33759.24484390392,0.0,-400000.0,7672.555646341823,0.0,0.0,0.003133816876655748,-1.1365966532436202,0.136115934126853,-0.007928776065271549,0.10471968808794947,0.015635650794216204,0.0,-1.0200624688794269,0.14347381076422355,276728.0,35123.0,0.0,20.12643230366785,35.15999999999997,2.0,3.0
111,4.44,34066.14706975759,0.0,-400000.0,7672.555646341823,0.0,0.0,0.0028244131558455773,-1.1324078655592262,0.1367306446983497,-0.0071719842221716155,0.10471970321030331,0.014588216389566179,0.0,-1.0206140619151634,0.14365266904618482,276728.0,35123.0,0.0,20.127158746982264,35.13999999999997,2.0,3.0
112,4.48,34373.049295611265,0.0,-400000.0,7672.555646341823,0.0,0.0,0.00254457866173088,-1.1282190773062317,0.13730440346539574,-0.006483946850388025,0.10471971492105413,0.013633476435811809,0.0,-1.0211660141340457,0.14383197074060491,276728.0,35123.0,0.0,20.127158746982264,35.119999999999976,2.0,3.0
113,4.5200000000000005,34679.95152146494,0.0,-400000.0,7672.555646341823,0.0,0.0,0.0022916217769740595,-1.124030288612913,0.137840844765073,-0.005858911651408819,0.10471972398985956,0.012764193930980935,0.0,-1.0217183254965454,0.14401171748687247,276728.0,35123.0,0.0,20.127158746982264,35.09999999999998,2.0,3.0
114,4.5600000000000005,34986.85374731861,0.0,-400000.0,7672.555646341823,0.0,0.0,0.002063076860483981,-1.1198414995786072,0.13834331774549186,-0.00529153391023394,0.10471973101274248,0.011973561291135323,0.0,-1.0222709959618668,0.14419191093240954,276728.0,35123.0,0.0,20.127158746982264,35.079999999999984,2.0,3.0
115,4.6000000000000005,35293.75597317228,0.0,-400000.0,7672.555646341823,0.0,0.0,0.0018566881087614423,-1.115652710280241,0.13881490353861872,-0.0047768595475961,0.10471973645126302,0.011255198438436451,0.0,-1.022824025487942,0.14437255273272065,276728.0,35123.0,0.0,20.127158746982264,35.05999999999999,2.0,3.0
116,4.64,35600.65819902595,0.0,-400000.0,7672.555646341823,0.0,0.0,0.001670394112580288,-1.1114639207773862,0.13925843229939266,-0.004310306595291947,0.10471974066285332,0.010603145516158395,0.0,-1.0233774140314265,0.14455364455144185,276728.0,35123.0,0.0,20.045372678393107,35.03999999999999,2.0,3.0
117,4.68,35907.56042487962,0.0,-400000.0,7672.555646341823,0.0,0.0,0.0015023131657920215,-1.1072751311161757,0.13967649990958578,-0.0038876456913482017,0.10471974392430886,0.010011851507399479,0.0,-1.0239311615476938,0.14473518806039043,276728.0,35123.0,0.0,20.045372678393107,35.019999999999996,2.0,3.0
118,4.72,36214.462650733294,0.0,-400000.0,7672.555646341823,0.0,0.0,0.0013507293604004779,-1.1030863413323344,0.1400714841935937,-0.0035049800741952138,0.10471974644998001,0.009476159809815725,0.0,-1.024485267990831,0.14491718493961497,276728.0,35123.0,0.0,20.045372678393107,35.0,2.0,3.0
119,4.76,36521.364876586966,0.0,-400000.0,7672.555646341823,0.0,0.0,0.0012140794839132962,-1.098897551453528,0.1404455605334591,-0.0031587254567491925,0.10471974840585976,0.008991291629218912,0.0,-1.025039733313633,0.1450996368774455,276728.0,35123.0,0.0,20.045372678393107,34.980000000000004,2.0,3.0
120,4.8,36828.26710244064,0.0,-400000.0,7672.555646341823,0.0,0.0,0.0010909407205974388,-1.0947087615011806,0.14080071680328088,-0.002845590079418537,0.10471974992049304,0.008552827895255131,0.0,-1.0255945574675989,0.14528254557054443,276728.0,35123.0,0.0,20.045372678393107,34.96000000000001,2.0,3.0
121,4.84,37135.16932829431,0.0,-400000.0,7672.555646341823,0.0,0.0,0.000980019147017151,-1.0905234869374925,0.1411387675698888,-0.002562555173065982,0.10396233357021305,0.008156690268223018,0.0,-1.0261497404029263,0.1454659127239574,276728.0,35123.0,0.0,19.85889982009365,34.94000000000001,2.0,3.0
122,4.88,37442.07155414798,0.0,-400000.0,7672.555646341823,0.0,0.0,0.0008801390035806083,-1.0863837575213091,0.14146136752825267,-0.0023068560067498627,0.10177425324584419,0.007799121693638307,0.0,-1.0267052820685054,0.14564974005116493,276728.0,35123.0,0.0,19.85889982009365,34.920000000000016,2.0,3.0
123,4.92,37748.97378000165,0.0,-400000.0,7672.555646341823,0.0,0.0,0.0007902327173139233,-1.0823432035468603,0.14177002415737558,-0.0020759636488144723,0.0984987082274073,0.0074766668671672355,0.0,-1.0272611824119164,0.1458340292741341,276728.0,35123.0,0.0,19.85889982009365,34.90000000000002,2.0,3.0
124,4.96,38055.87600585532,0.0,-400000.0,7672.555646341823,0.0,0.0,0.000709331646336169,-1.0784423579461968,0.14206610959610763,-0.001867567532045227,0.09441838502959005,0.007186152894260581,0.0,-1.0278174413794219,0.14601878212337083,276728.0,35123.0,0.0,19.85889982009365,34.880000000000024,2.0,3.0
125,5.0,38362.778231708995,0.0,-400000.0,7672.555646341823,0.0,0.0,0.0006365575132044583,-1.074710978719666,0.14235087174900934,-0.0016795588828206205,0.08976489478064667,0.0069246703638419956,0.0,-1.0283740589159636,0.14620400033797248,276728.0,35123.0,0.0,19.85889982009365,34.86000000000003,3.0,3.0
126,5.04,38669.68045756267,0.0,-400000.0,7672.555646341823,0.0,0.0,0.0005711144921628668,-1.0711700081601911,0.1426254446406046,-0.001510015049346523,0.08472683346452867,0.006689555001700648,0.0,-1.0289310349651564,0.14638968566568075,276728.0,35123.0,0.0,19.849234708427687,34.84000000000003,3.0,3.0
127,5.08,38976.58268341634,0.0,-400000.0,7672.555646341823,0.0,0.0,0.0005122819141356512,-1.0678332219592386,0.14289085804252613,-0.001357184744184214,0.07945665775701666,0.006478370025065165,0.0,-1.0294883694692838,0.14657583986293515,276728.0,35123.0,0.0,19.849234708427687,34.820000000000036,3.0,3.0
128,5.12,39283.48490927001,0.0,-400000.0,7672.555646341823,0.0,0.0,0.00045940755286343646,-1.0647086138445663,0.1431480464025356,-0.0012194742005606966,0.07407654297767233,0.006288889283701286,0.0,-1.0300460623692929,0.1467624646949267,276728.0,35123.0,0.0,19.849234708427687,34.80000000000004,3.0,3.0
129,5.16,39590.38713512368,0.0,-400000.0,7672.555646341823,0.0,0.0,0.0004119014557320459,-1.0617995549742814,0.14339785710750433,-0.0010954342296811718,0.06868336696061826,0.006119081243507904,0.0,-1.0306041136047885,0.14694956193565206,276728.0,35123.0,0.0,19.849234708427687,34.780000000000044,3.0,3.0
130,5.2,39897.28936097735,0.0,-400000.0,7672.555646341823,0.0,0.0,0.0003692302834553985,-1.0591057617635393,0.14364105811443112,-0.0009837481568579715,0.06335294396108636,0.005967093844898565,0.0,-1.031162523114029,0.1471371333679681,276728.0,35123.0,0.0,19.849234708427687,34.76000000000005,3.0,3.0
131,5.24,40204.191586831024,0.0,-400000.0,7672.555646341823,0.0,0.0,0.0003309121237370993,-1.0566241010321797,0.14387834498466334,-0.0008832206072274313,0.05814361566314169,0.005831240249324144,0.0,-1.0317212908339204,0.1473251807836469,276728.0,35123.0,0.0,19.90404437414112,34.74000000000005,3.0,3.0
132,5.28,40511.093812684696,0.0,-400000.0,7672.555646341823,0.0,0.0,0.00029651174525989433,-1.0543492572319397,0.1441103473568646,-0.0007927671067235384,0.05309929159039792,0.005709985472330755,0.0,-1.032280416700012,0.14751370598343105,276728.0,35123.0,0.0,19.90404437414112,34.720000000000056,3.0,3.0
133,5.32,40817.99603853837,0.0,-400000.0,7672.555646341823,0.0,0.0,0.0002656362597641537,-1.0522742829522083,0.14433763489408274,-0.0007114044604584516,0.048252018444287614,0.005601933889887395,0.0,-1.0328399006464901,0.14770271077708952,276728.0,35123.0,0.0,19.90404437414112,34.70000000000006,3.0,3.0
134,5.36,41124.89826439204,0.0,-400000.0,7672.555646341823,0.0,0.0,0.00023793116151576494,-1.0503910508368393,0.14456072273964657,-0.0006382418684255642,0.04362414684114974,0.005505817595794434,0.0,-1.033399742606174,0.1478921969834737,276728.0,35123.0,0.0,19.90404437414112,34.680000000000064,3.0,3.0
135,5.4,41431.80049024571,0.0,-400000.0,7672.555646341823,0.0,0.0,0.00021307671508150695,-1.04869062240475,0.14478007651566008,-0.0005724727372393598,0.03923015436182827,0.0054204855813177865,0.0,-1.0339599425105104,0.14808216643057406,276728.0,35123.0,0.0,19.90404437414112,34.66000000000007,3.0,4.0
136,5.44,41738.70271609938,0.0,-400000.0,7672.555646341823,0.0,0.0,0.0001907846639870136,-1.0471635469961007,0.1449961168966566,-0.0005133671462476804,0.035078175567195016,0.005344893703379713,0.0,-1.0345205002895672,0.1482726209555773,276728.0,35123.0,0.0,20.078901197317826,34.64000000000007,3.0,4.0
137,5.48,42045.604941953054,0.0,-400000.0,7672.555646341823,0.0,0.0,0.00017079523449774756,-1.0458001021136838,0.1452092237895919,-0.00046026492662091747,0.031171282497503387,0.005278095404335152,0.0,-1.0350814158720298,0.1484635624049236,276728.0,35123.0,0.0,20.078901197317826,34.620000000000076,3.0,4.0
138,5.5200000000000005,42352.507167806725,0.0,-400000.0,7672.555646341823,0.0,0.0,0.00015287441041260917,-1.0445904847523093,0.14541974014985318,-0.00041256931279344094,0.02750855301281853,0.0052192331442851994,0.0,-1.0356426891851946,0.14865499263436455,276728.0,35123.0,0.0,20.078901197317826,34.60000000000008,3.0,4.0
139,5.5600000000000005,42659.4093936604,0.0,-400000.0,7672.555646341823,0.0,0.0,0.0001368114563740904,-1.0435249618698026,0.1456279754613856,-0.00036974112678481126,0.0240859590156863,0.005167530505786589,0.0,-1.0362043201549647,0.14884691350902163,276728.0,35123.0,0.0,20.078901197317826,34.580000000000084,3.0,4.0
140,5.6000000000000005,42966.31161951407,0.0,-400000.0,7672.555646341823,0.0,0.0,0.0001224166687640348,-1.0425939869191367,0.14583420890742763,-0.0003312934573627247,0.02089710201255427,0.005122284930506779,0.0,-1.0367663087058434,0.14903932690344465,276728.0,35123.0,0.0,20.078901197317826,34.56000000000009,3.0,4.0
141,5.64,43273.21384536774,0.0,-400000.0,7672.555646341823,0.0,0.0,0.00010951933475964582,-1.0417882883039367,0.1460386922567302,-0.0002967867976449376,0.01793381951899015,0.005082861047680851,0.0,-1.03732865476093,0.14923223470167116,276728.0,35123.0,0.0,19.902508521758556,34.54000000000009,3.0,4.0
142,5.68,43580.11607122141,0.0,-400000.0,7672.555646341823,0.0,0.0,9.796588156306144e-05,-1.0410989347147097,0.14624165248853566,-0.0002658246065073821,0.015186682410168864,0.00504868455500968,0.0,-1.0378913582419136,0.14942563879728601,276728.0,35123.0,0.0,19.902508521758556,34.520000000000095,3.0,4.0
143,5.72,43887.01829707508,0.0,-400000.0,7672.555646341823,0.0,0.0,8.761819918475685e-05,-1.0405173815294864,0.14644329417802882,-0.00023804926101683008,0.012645400388409953,0.005019236613783612,0.0,-1.0384544190690683,0.14961954109348136,276728.0,35123.0,0.0,19.902508521758556,34.5000000000001,3.0,4.0
144,5.76,44193.920522928755,0.0,-400000.0,7672.555646341823,0.0,0.0,7.835212145345891e-05,-1.0400355018018397,0.14664380166245725,-0.00021313836899589434,0.010299150219534266,0.004994048721427652,0.0,-1.0390178371612477,0.14981394350311725,276728.0,35123.0,0.0,19.902508521758556,34.4800000000001,3.0,4.0
145,5.8,44500.822748782426,0.0,-400000.0,7672.555646341823,0.0,0.0,7.005605114198084e-05,-1.03964560479566,0.14684334100666133,-0.00019080141272188585,0.008136839223795043,0.004972698026264765,0.0,-1.0395816124358792,0.1500088479487826,276728.0,35123.0,0.0,19.902508521758556,34.46000000000011,3.0,4.0
146,5.84,44807.7249746361,0.0,-400000.0,7672.555646341823,0.0,0.0,6.26297162395268e-05,-1.0393404445459464,0.14704206178536391,-0.00017077669663247591,0.0061473146468575095,0.0049548030510208185,0.0,-1.0401457448089588,0.15020425636285661,276728.0,35123.0,0.0,19.839186748935997,34.44000000000011,3.0,4.0
147,5.88,45114.62720048977,0.0,-400000.0,7672.555646341823,0.0,0.0,5.5983045467683406e-05,-1.03911322051643,0.14724009869824756,-0.0001528285737397683,0.0043195279399236355,0.004940019793396249,0.0,-1.040710234195045,0.15040017068757058,276728.0,35123.0,0.0,19.839186748935997,34.420000000000115,3.0,4.0
148,5.92,45421.52942634344,0.0,-400000.0,7672.555646341823,0.0,0.0,5.003515213138445e-05,-1.0389575720778967,0.14743757303259944,-0.00013674492722487748,0.0026426616093932374,0.004928038173865673,0.0,-1.0412750805072546,0.1505965928750704,276728.0,35123.0,0.0,19.839186748935997,34.40000000000012,3.0,4.0
149,5.96,45728.43165219711,0.0,-400000.0,7672.555646341823,0.0,0.0,4.4713416320056076e-05,-1.0388675682368422,0.14763459398712792,-0.00012233488538619604,0.0011062251240499916,0.004918578802703994,0.0,-1.0418402836572562,0.1507935248874793,276728.0,35123.0,0.0,19.839186748935997,34.38000000000012,3.0,4.0
150,6.0,46035.333878050784,0.0,-400000.0,7672.555646341823,0.0,0.0,3.99526563307829e-05,-1.0388376937949917,0.14783125986945408,-0.00010942674973838689,-0.0002998746355014749,0.004911390040051982,0.0,-1.0424058435552646,0.1509909686969612,276728.0,35123.0,0.0,19.839186748935997,34.36000000000013,3.0,4.0
151,6.04,46342.236103904455,0.0,-400000.0,7672.555646341823,0.0,0.0,3.569438097782873e-05,-1.0388628329097473,0.1480276591787508,-9.786611760068555e-05,-0.00158528375802612,0.004906245324605219,0.0,-1.0429717601100361,0.15118892628578434,276728.0,35123.0,0.0,20.090956170527594,34.34000000000013,3.0,4.0
152,6.08,46649.13832975813,0.0,-400000.0,7672.555646341823,0.0,0.0,3.1886115184522774e-05,-1.0389382508481513,0.14822387158404332,-8.751418196950567e-05,-0.002759168618622531,0.004902940748224227,0.0,-1.043538033228862,0.15138739964638584,276728.0,35123.0,0.0,20.090956170527594,34.320000000000135,3.0,4.0
153,6.12,46956.0405556118,0.0,-400000.0,7672.555646341823,0.0,0.0,2.8480791927805076e-05,-1.0390595745776519,0.14841996880779354,-7.824619284053748e-05,-0.0038301968610961017,0.004901292855408863,0.0,-1.0441046628175634,0.15158639078143618,276728.0,35123.0,0.0,20.090956170527594,34.30000000000014,3.0,4.0
154,6.16,47262.94278146547,0.0,-400000.0,7672.555646341823,0.0,0.0,2.543620422606077e-05,-1.0392227727116794,0.14861601542356376,-6.995006542985554e-05,-0.004806529307255023,0.00490113664815035,0.0,-1.044671648780486,0.15178590170390455,276728.0,35123.0,0.0,20.090956170527594,34.28000000000014,3.0,4.0
155,6.2,47569.84500731914,0.0,-400000.0,7672.555646341823,0.0,0.0,2.2714511430684382e-05,-1.0394241352232092,0.14881206957579168,-6.252512194343162e-05,-0.005695820507010781,0.004902323778163945,0.0,-1.0452389910204933,0.15198593443712458,276728.0,35123.0,0.0,20.090956170527594,34.26000000000015,3.0,4.0
156,6.24,47876.74723317281,0.0,-400000.0,7672.555646341823,0.0,0.0,2.0281794604460888e-05,-1.0396602532520385,0.14900818362900226,-5.588095466214069e-05,-0.00650522602732409,0.0049047209099124895,0.0,-1.0458066894389624,0.1521864910148606,276728.0,35123.0,0.0,19.9967381576409,34.24000000000015,3.0,4.0
157,6.28,48183.649459026485,0.0,-400000.0,7672.555646341823,0.0,0.0,1.810765624858834e-05,-1.0399279992588204,0.14920440475313237,-4.9936399147727604e-05,-0.007241414903740021,0.004908208239154132,0.0,-1.0463747439357771,0.1523875734813743,276728.0,35123.0,0.0,19.9967381576409,34.220000000000155,3.0,4.0
158,6.32,48490.551684880156,0.0,-400000.0,7672.555646341823,0.0,0.0,1.6164860078138866e-05,-1.040224507718724,0.14940077545104602,-4.461860733759073e-05,-0.00791058595390403,0.004912678152987807,0.0,-1.0469431544093228,0.15258918389149212,276728.0,35123.0,0.0,19.9967381576409,34.20000000000016,3.0,4.0
159,6.36,48797.45391073383,0.0,-400000.0,7672.555646341823,0.0,0.0,1.4429006945964156e-05,-1.0405471564979822,0.14959733403376818,-3.986221118625713e-05,-0.008518486885283876,0.004918034018528044,0.0,-1.0475119207564807,0.15279132431067288,276728.0,35123.0,0.0,19.9967381576409,34.18000000000016,3.0,4.0
160,6.4,49104.3561365875,0.0,-400000.0,7672.555646341823,0.0,0.0,1.2878243380355418e-05,-1.0408935490159361,0.14979411504846263,-3.560856833288126e-05,-0.009070435325575837,0.004924189088419389,0.0,-1.048081042872622,0.1529939968150761,276728.0,35123.0,0.0,19.9967381576409,34.16000000000017,3.0,4.0
161,6.44,49411.25836244117,0.0,-400000.0,7672.555646341823,0.0,0.0,1.1492999534869802e-05,-1.0412614972620398,0.14999114966371624,-3.180508203089715e-05,-0.00957134106930394,0.00493106551240253,0.0,-1.0486505206516017,0.15319720349163088,276728.0,35123.0,0.0,20.096331837557198,34.14000000000017,3.0,4.0
162,6.48,49718.16058829484,0.0,-400000.0,7672.555646341823,0.0,0.0,1.0255753652182537e-05,-1.0416490057104741,0.15018846601627173,-2.8404588272015462e-05,-0.01002572897254242,0.004938593445072633,0.0,-1.0492203539857539,0.15340094643810512,276728.0,35123.0,0.0,20.096331837557198,34.120000000000175,3.0,4.0
163,6.5200000000000005,50025.062814148514,0.0,-400000.0,7672.555646341823,0.0,0.0,9.1508204200069e-06,-1.042054256153511,0.1503860895229638,-2.536480367596809e-05,-0.010437762043460287,0.004946710240828725,0.0,-1.0497905427658842,0.15360522776317542,276728.0,35123.0,0.0,20.096331837557198,34.10000000000018,3.0,4.0
164,6.5600000000000005,50331.965040002186,0.0,-400000.0,7672.555646341823,0.0,0.0,8.164160848278475e-06,-1.0424755934576817,0.15058404316126303,-2.264782830356654e-05,-0.010811264372901037,0.004955359727805267,0.0,-1.0503610868812663,0.15381004958649755,276728.0,35123.0,0.0,20.096331837557198,34.08000000000018,3.0,4.0
165,6.6000000000000005,50638.86726585586,0.0,-400000.0,7672.555646341823,0.0,0.0,7.28321152501057e-06,-1.0429115122334118,0.15078234772150945,-2.0219698087446523e-05,-0.011149743629383741,0.004964491553306529,0.0,-1.0509319862196334,0.15401541403877725,276728.0,35123.0,0.0,20.096331837557198,34.06000000000019,3.0,4.0
166,6.640000000000001,50945.76949170953,0.0,-400000.0,7672.555646341823,0.0,0.0,6.496731315432543e-06,-1.0433606443984593,0.15098102203362712,-1.8049982065867358e-05,-0.011456412909243565,0.004974060593935691,0.0,-1.051503240667174,0.15422132326184188,276728.0,35123.0,0.0,19.932440610015984,34.04000000000019,3.0,4.0
167,6.68,51252.6717175632,0.0,-400000.0,7672.555646341823,0.0,0.0,5.794663757020373e-06,-1.0438217476076876,0.15118008317084333,-1.611142005351293e-05,-0.011734211787250697,0.004984026424226481,0.0,-1.052074850108526,0.1544277794087123,276728.0,35123.0,0.0,19.932440610015984,34.020000000000195,3.0,4.0
168,6.72,51559.57394341687,0.0,-400000.0,7672.555646341823,0.0,0.0,5.168013573483013e-06,-1.044293694515996,0.15137954663269532,-1.437959679262346e-05,-0.011985826457790104,0.004994352838150402,0.0,-1.05264681442677,0.15463478464367555,276728.0,35123.0,0.0,19.932440610015984,34.0000000000002,3.0,4.0
169,6.76,51866.47616927054,0.0,-400000.0,7672.555646341823,0.0,0.0,4.6087358852158325e-06,-1.0447754628372112,0.15157942650938713,-1.2832649001020814e-05,-0.012213708893105316,0.005005007418389709,0.0,-1.0532191335034236,0.15484234114235798,276728.0,35123.0,0.0,19.932440610015984,33.9800000000002,3.0,4.0
170,6.8,52173.378395124215,0.0,-400000.0,7672.555646341823,0.0,0.0,4.109636833590672e-06,-1.0452661261591174,0.15177973562935973,-1.1451002073543881e-05,-0.01242009497454171,0.005015961148739595,0.0,-1.0537918072184356,0.15505045109179902,276728.0,35123.0,0.0,19.932440610015984,33.96000000000021,3.0,4.0
171,6.84,52480.28062097789,0.0,-400000.0,7672.555646341823,0.0,0.0,3.664284463024496e-06,-1.045764845473286,0.15198048569175635,-1.0217133502774708e-05,-0.012607021576300588,0.005027188065435142,0.0,-1.0543648354501793,0.15525911669052536,276728.0,35123.0,0.0,20.01729865011935,33.94000000000021,3.0,4.0
172,6.88,52787.18284683156,0.0,-400000.0,7672.555646341823,0.0,0.0,3.266928819253279e-06,-1.046270861377748,0.15218168738530122,-9.115360366226233e-06,-0.012776342599900585,0.005038664943593143,0.0,-1.0549382180754479,0.15546834014862587,276728.0,35123.0,0.0,20.01729865011935,33.920000000000215,3.0,4.0
173,6.92,53094.08507268523,0.0,-400000.0,7672.555646341823,0.0,0.0,2.912430325733861e-06,-1.0467834869106325,0.15238335049496082,-8.131648482722489e-06,-0.01292974397215391,0.005050371015318395,0.0,-1.0555119549694465,0.1556781236878271,276728.0,35123.0,0.0,20.01729865011935,33.90000000000022,3.0,4.0
174,6.96,53400.9872985389,0.0,-400000.0,7672.555646341823,0.0,0.0,2.5961955936108533e-06,-1.0473021009735273,0.15258548399762212,-7.253441072710834e-06,-0.013068757630701212,0.005062287716351547,0.0,-1.0560860460057875,0.1558884695415692,276728.0,35123.0,0.0,20.01729865011935,33.88000000000022,3.0,4.0
175,7.0,53707.88952439257,0.0,-400000.0,7672.555646341823,0.0,0.0,2.314119905139927e-06,-1.0478261423043715,0.1527880961479007,-6.469504967723423e-06,-0.013194774529594628,0.00507439845843362,0.0,-1.0566604910564839,0.15609937995508266,276728.0,35123.0,0.0,20.01729865011935,33.86000000000023,3.0,4.0
176,7.04,54014.791750246244,0.0,-400000.0,7672.555646341823,0.0,0.0,2.0625356866950225e-06,-1.0483551039610568,0.15299119455508123,-5.769792605020566e-06,-0.013309056703571891,0.005086688424833181,0.0,-1.0572352899919426,0.15631085718546545,276728.0,35123.0,0.0,19.978508809107108,33.84000000000023,3.0,4.0
177,7.08,54321.693976099916,0.0,-400000.0,7672.555646341823,0.0,0.0,1.838166356274147e-06,-1.0488885282785032,0.1531947862520928,-5.145318216327448e-06,-0.013412748433946652,0.005099144386728346,0.0,-1.0578104426809596,0.15652290350176082,276728.0,35123.0,0.0,19.978508809107108,33.820000000000235,3.0,4.0
178,7.12,54628.59620195359,0.0,-400000.0,7672.555646341823,0.0,0.0,1.6380849924576481e-06,-1.0494260022637267,0.1533988777573324,-4.588046776108368e-06,-0.013506886561799604,0.00511175453835925,0.0,-1.0583859489907121,0.1567355211850358,276728.0,35123.0,0.0,19.978508809107108,33.80000000000024,3.0,4.0
179,7.16,54935.49842780726,0.0,-400000.0,7672.555646341823,0.0,0.0,1.4596773277031259e-06,-1.0499671533952621,0.15360347513006786,-4.090794416471998e-06,-0.013592409995693645,0.005124508349069196,0.0,-1.058961808786754,0.15694871252846027,276728.0,35123.0,0.0,19.978508809107108,33.78000000000024,3.0,4.0
180,7.2,55242.40065366093,0.0,-400000.0,7672.555646341823,0.0,0.0,1.3006086192640474e-06,-1.050511645795196,0.15380858402007824,-3.6471391439113537e-06,-0.013670168461693707,0.0051373964305365515,0.0,-1.0595380219330082,0.15716247983738646,276728.0,35123.0,0.0,19.978508809107108,33.76000000000025,3.0,4.0
181,7.24,55549.3028795146,0.0,-400000.0,7672.555646341823,0.0,0.0,1.15879399642363e-06,-1.0510591767439832,0.15401420971212382,-3.251340808885825e-06,-0.01374093054326379,0.005150410417665883,0.0,-1.0601145882917604,0.1573768254294294,276728.0,35123.0,0.0,19.853760192816345,33.74000000000025,3.0,4.0
182,7.28,55856.20510536827,0.0,-400000.0,7672.555646341823,0.0,0.0,1.0323719236223979e-06,-1.0516094735101078,0.1542203571657777,-2.8982693838789503e-06,-0.013805391057804003,0.005163542861757537,0.0,-1.060691507723654,0.15759175163454775,276728.0,35123.0,0.0,19.853760192816345,33.720000000000255,3.0,4.0
183,7.32,56163.107331221945,0.0,-400000.0,7672.555646341823,0.0,0.0,9.196804558635088e-07,-1.052162290468518,0.15442703105109765,-2.5833407000477144e-06,-0.013864177815325477,0.005176787134711281,0.0,-1.0612687800876826,0.15780726079512536,276728.0,35123.0,0.0,19.853760192816345,33.70000000000026,3.0,4.0
184,7.36,56470.00955707562,0.0,-400000.0,7672.555646341823,0.0,0.0,8.192359959006061e-07,-1.0527174064835565,0.15463423578056767,-2.3024588778609897e-06,-0.013917857803156738,0.005190137343142908,0.0,-1.0618464052411836,0.15802335526605354,276728.0,35123.0,0.0,19.853760192816345,33.68000000000026,3.0,4.0
185,7.4,56776.91178292929,0.0,-400000.0,7672.555646341823,0.0,0.0,7.297142925077907e-07,-1.0532746225338627,0.15484197553769588,-2.051964764068016e-06,-0.01396694283872936,0.005203588251404205,0.0,-1.062424383039833,0.1582400374148137,276728.0,35123.0,0.0,19.853760192816345,33.66000000000027,3.0,4.0
186,7.44,57083.81400878296,0.0,-400000.0,7672.555646341823,0.0,0.0,6.499334459258052e-07,-1.053833759558365,0.15505025430261501,-1.8285897567282629e-06,-0.0140118947304762,0.005217135212597502,0.0,-1.0630027133376372,0.15845730962156113,276728.0,35123.0,0.0,20.07990145618977,33.64000000000027,3.0,4.0
187,7.48,57390.71623463663,0.0,-400000.0,7672.555646341823,0.0,0.0,5.788387106674897e-07,-1.0543946565040803,0.15525907587499754,-1.6294144625874374e-06,-0.014053129984765827,0.005230774106766832,0.0,-1.063581395986928,0.15867517427920882,276728.0,35123.0,0.0,20.07990145618977,33.620000000000275,3.0,4.0
188,7.5200000000000005,57697.6184604903,0.0,-400000.0,7672.555646341823,0.0,0.0,5.154889075157991e-07,-1.0549571685579213,0.15546844389456427,-1.4518316874522754e-06,-0.014091024094629728,0.0052445012855299065,0.0,-1.064160430838355,0.1588936337935126,276728.0,35123.0,0.0,20.07990145618977,33.60000000000028,3.0,4.0
189,7.5600000000000005,58004.520686343974,0.0,-400000.0,7672.555646341823,0.0,0.0,4.5904427600053666e-07,-1.0555211655461247,0.15567836185943784,-1.2935133109915605e-06,-0.01412591544386793,0.005258313522489164,0.0,-1.0647398177408802,0.15911269058315636,276728.0,35123.0,0.0,20.07990145618977,33.58000000000028,3.0,4.0
190,7.6000000000000005,58311.422912197646,0.0,-400000.0,7672.555646341823,0.0,0.0,4.0875561611365207e-07,-1.0560865304862372,0.1558888331425657,-1.1523806431108764e-06,-0.01415810885796442,0.005272207968826896,0.0,-1.0653195565417706,0.15933234707983837,276728.0,35123.0,0.0,20.07990145618977,33.56000000000029,3.0,4.0
191,7.640000000000001,58618.32513805132,0.0,-400000.0,7672.555646341823,0.0,0.0,3.6395458371467397e-07,-1.0566531582778276,0.15609986100641488,-1.0265779002027233e-06,-0.01418787883113866,0.0052861821135498045,0.0,-1.0658996470865914,0.15955260572835808,276728.0,35123.0,0.0,19.96523065838725,33.54000000000029,3.0,4.0
192,7.68,58925.22736390499,0.0,-400000.0,7672.555646341823,0.0,0.0,3.2404501816567877e-07,-1.0572209545192495,0.15631144861611904,-9.144484766053047e-07,-0.014215472456817847,0.0053002337479023205,0.0,-1.0664800892192006,0.15977346898670364,276728.0,35123.0,0.0,19.96523065838725,33.520000000000294,3.0,4.0
193,7.72,59232.12958975866,0.0,-400000.0,7672.555646341823,0.0,0.0,2.8849519337992287e-07,-1.0577898344388503,0.15652359905124086,-8.145137199146346e-07,-0.014241112086849804,0.005314360933517227,0.0,-1.0670608827817405,0.15999493932614017,276728.0,35123.0,0.0,19.96523065838725,33.5000000000003,3.0,4.0
194,7.76,59539.03181561233,0.0,-400000.0,7672.555646341823,0.0,0.0,2.568308948149649e-07,-1.058359721930014,0.15673631531629453,-7.254539487499663e-07,-0.014264997742901152,0.005328561973915856,0.0,-1.0676420276146332,0.16021701923129866,276728.0,35123.0,0.0,19.96523065838725,33.4800000000003,3.0,4.0
195,7.8,59845.934041466004,0.0,-400000.0,7672.555646341823,0.0,0.0,2.2862923512063227e-07,-1.0589305486803446,0.15694960035015926,-6.460914785018582e-07,-0.014287309301702437,0.00534283538900986,0.0,-1.068223523556572,0.1604397112002656,276728.0,35123.0,0.0,19.96523065838725,33.460000000000306,3.0,4.0
196,7.84,60152.836267319675,0.0,-400000.0,7672.555646341823,0.0,0.0,2.0351313028252813e-07,-1.0595022533861524,0.15716345703450035,-5.753754447940542e-07,-0.01430820847411655,0.0053571798922922,0.0,-1.0688053704445155,0.16066301774467343,276728.0,35123.0,0.0,19.918296233858758,33.44000000000031,3.0,4.0
197,7.88,60459.73849317335,0.0,-400000.0,7672.555646341823,0.0,0.0,1.8114636628925458e-07,-1.0600747810441795,0.15737788820130294,-5.123682361348645e-07,-0.014327840596420867,0.005371594370437002,0.0,-1.0693875681136813,0.1608869413897915,276728.0,35123.0,0.0,19.918296233858758,33.420000000000314,3.0,4.0
198,7.92,60766.64071902702,0.0,-400000.0,7672.555646341823,0.0,0.0,1.6122919369194236e-07,-1.0606480823132272,0.15759289663961154,-4.5623336676503734e-07,-0.014346336250704847,0.005386077865056731,0.0,-1.0699701163975377,0.16111148467461794,276728.0,35123.0,0.0,19.918296233858758,33.40000000000032,3.0,4.0
199,7.96,61073.54294488069,0.0,-400000.0,7672.555646341823,0.0,0.0,1.4349439400428596e-07,-1.061222112939009,0.15780848510155995,-4.062246382478441e-07,-0.014363812729895706,0.005400629556391239,0.0,-1.0705530151277984,0.1613366501519722,276728.0,35123.0,0.0,19.918296233858758,33.38000000000032,3.0,4.0
200,8.0,61380.44517073436,0.0,-400000.0,7672.555646341823,0.0,0.0,1.2770376778775162e-07,-1.0617968332361587,0.15802465630776652,-3.616764540924886e-07,-0.014380375361627586,0.005415248748726234,0.0,-1.071136264134415,0.16156244038858839,276728.0,35123.0,0.0,19.918296233858758,33.360000000000326,3.0,4.0
201,8.040000000000001,61687.34739658803,0.0,-400000.0,7672.555646341823,0.0,0.0,1.1364499954983813e-07,-1.0623722076218816,0.15824141295216185,-3.219951658338654e-07,-0.014396118703965937,0.005429934857359878,0.0,-1.0717198632455698,0.16178885796520917,276728.0,35123.0,0.0,19.932218930922648,33.34000000000033,3.0,4.0
202,8.08,61994.249622441705,0.0,-400000.0,7672.555646341823,0.0,0.0,1.0112885931610537e-07,-1.0629482041962421,0.15845875770630968,-2.866513416724086e-07,-0.014411127624882033,0.005444687396954936,0.0,-1.072303812287669,0.1620159054766807,276728.0,35123.0,0.0,19.932218930922648,33.320000000000334,3.0,4.0
203,8.120000000000001,62301.151848295376,0.0,-400000.0,7672.555646341823,0.0,0.0,8.998670497568483e-08,-1.0635247943645523,0.15867669322327438,-2.5517286015366266e-07,-0.014425478276340296,0.00545950597113069,0.0,-1.072888111085336,0.1622435855320481,276728.0,35123.0,0.0,19.932218930922648,33.30000000000034,3.0,4.0
204,8.16,62608.05407414905,0.0,-400000.0,7672.555646341823,0.0,0.0,8.006825329599465e-08,-1.0641019524977442,0.15889522214108365,-2.271387415702149e-07,-0.014439238972906132,0.005474390263164219,0.0,-1.073472759461405,0.1624719007546518,276728.0,35123.0,0.0,19.932218930922648,33.28000000000034,3.0,4.0
205,8.2,62914.95630000272,0.0,-400000.0,7672.555646341823,0.0,0.0,7.123959090108899e-08,-1.0646796556270013,0.15911434708582933,-2.0217363891768625e-07,-0.014452470983904307,0.00548934002768391,0.0,-1.074057757236912,0.16270085378222468,276728.0,35123.0,0.0,19.932218930922648,33.260000000000346,3.0,4.0
206,8.24,63221.85852585639,0.0,-400000.0,7672.555646341823,0.0,0.0,6.338139955054007e-08,-1.0652578831692738,0.15933407067444533,-1.7994291843868107e-07,-0.01446522924734915,0.005504355083250575,0.0,-1.0746431042310896,0.16293044726698985,276728.0,35123.0,0.0,19.84341153159306,33.24000000000035,3.0,4.0
