,time,xpos,ypos,zpos,xdot,ydot,zdot,roll,pitch,yaw,ang_roll,ang_pitch,ang_yaw,in_roll,in_pitch,in_yaw,target_xpos,target_ypos,target_zpos,payload_temp,energy,adcs_mode,payload_mode
0,0.0,6540283.769803282,1752463.754389168,0.0,-1719.7563003386465,6418.21788950051,3836.2778231709112,0.0,-1.5707963267948966,0.0,0.0,0.0,0.0,0.0,0.0,0.0,0.0,0.0,0.0,18.0,35.0,1.0,0.0
1,0.5,6539423.891653112,1755672.8633339182,1918.1389115854556,-1723.955253811919,6417.092783308291,3836.2778231709112,0.0002513274122871835,-1.5705449993826093,0.0,0.023624776754995247,0.023624776754995247,0.0,0.12217304763960307,-1.3089969389957472,0.0,0.0,0.0,0.0,16.87197432881071,35.019999999999996,1.0,0.0
2,1.0,6538561.914026206,1758881.4097255722,3836.2778231709112,-1728.153653209843,6415.965617366077,3836.2765916995486,0.0013909464305621882,-1.5694053803643344,0.0,0.04191980387406356,0.04191980387406356,0.0,0.12217304763960307,-1.3089969389957472,0.0,0.0,0.0,0.0,16.87197432881071,35.03999999999999,1.0,0.0
3,1.5,6537697.837199601,1762089.3925342553,5754.416119020685,-1732.351497185059,6414.836392037018,3836.274128758009,0.0032184584685141615,-1.5675778683263824,0.0,0.056087472875070064,0.056087472875070064,0.0,0.12217304763960307,-1.3089969389957472,0.0,0.0,0.0,0.0,16.87197432881071,35.05999999999999,1.0,0.0
4,2.0,6536831.661451009,1765296.8107302738,7672.553183399689,-1736.5487843903854,6413.7051076849275,3836.2704343478736,0.00557867486090398,-1.5652176519339926,0.0,0.0670589157494495,0.0670589157494495,0.0,0.12217304763960307,-1.3089969389957472,0.0,0.0,0.0,0.0,16.87197432881071,35.079999999999984,1.0,0.0
5,2.5,6535963.387058814,1768503.6632841162,9590.688400573626,-1740.745513478819,6412.571764674276,3836.2655084711196,0.008351417505370464,-1.562444909289526,0.0,0.07555520111136893,0.07555520111136893,0.0,0.12217304763960307,-1.3089969389957472,0.0,0.0,0.0,0.0,16.87197432881071,35.09999999999998,1.0,0.0
6,3.0,6535093.014302075,1771709.9491664534,11508.821154809186,-1744.941683103535,6411.436363370198,3836.2593511301184,0.011443620479445119,-1.5593527063154515,0.0,0.08213472449563934,0.08213472449563934,0.0,0.12217304763960307,-1.3089969389957472,0.0,0.0,0.0,0.0,16.89740108900093,35.119999999999976,1.0,0.0
7,3.5,6534220.543460523,1774915.6673481385,13426.950830374244,-1749.1372919178882,6410.298904138488,3836.251962327637,0.014783213532768342,-1.5560131132621282,0.0,0.08722990740441834,0.08722990740441834,0.0,0.12217304763960307,-1.3089969389957472,0.0,0.0,0.0,0.0,16.89740108900093,35.13999999999997,1.0,0.0
8,4.0,6533345.974814564,1778120.8168002078,15345.076811538063,-1753.3323385754127,6409.159387345601,3836.243342066838,0.018314385463461653,-1.5524819413314348,0.0,0.09117561704897681,0.09117561704897681,0.0,0.12217304763960307,-1.3089969389957472,0.0,0.0,0.0,0.0,16.89740108900093,35.15999999999997,1.0,0.0
9,4.5,6532469.308645276,1781325.3964938805,17263.198482571483,-1757.5268217298228,6408.017813358654,3836.2334903512797,0.021993916076790365,-1.548802410718106,0.0,0.09423117459772289,0.09423117459772289,0.0,0.12217304763960307,-1.3089969389957472,0.0,0.0,0.0,0.0,16.89740108900093,35.179999999999964,1.0,0.0
10,5.0,6531590.545234411,1784529.4054005598,19181.315227747124,-1761.720740035013,6406.874182545423,3836.2224071849146,0.02578833565395193,-1.5450079911409444,0.0,0.09659739836347185,0.09659739836347185,0.0,0.12217304763960307,-1.3089969389957472,0.0,0.0,0.0,0.0,16.89740108900093,35.19999999999996,1.0,0.0
11,5.5,6530709.684864393,1787732.8424918326,21099.42643133958,-1765.9140921450592,6405.728495274344,3836.2100925720915,0.029671725244705655,-1.5411246015501907,0.0,0.09842980204766784,0.09842980204766784,0.0,0.12217304763960307,-1.3089969389957472,0.0,0.0,0.0,0.0,16.54534167379124,35.219999999999956,1.0,0.0
12,6.0,6529826.7278183205,1790935.7067394697,23017.531477625627,-1770.1068767142178,6404.580751914515,3836.196546517554,0.03362401321398514,-1.5371723135809112,0.0,0.09984881546070921,0.09984881546070921,0.0,0.12217304763960307,-1.3089969389957472,0.0,0.0,0.0,0.0,16.54534167379124,35.23999999999995,1.0,0.0
13,6.5,6528941.674379963,1794137.997115427,24935.629750884404,-1774.2990923969278,6403.430952835692,3836.181769026441,0.037629656087595,-1.5331666707073013,0.0,0.10094769944776845,0.10094769944776845,0.0,0.12217304763960307,-1.3089969389957472,0.0,0.0,0.0,0.0,16.54534167379124,35.25999999999995,1.0,0.0
14,7.0,6528054.524833765,1797339.7125918448,26853.720635397625,-1778.49073784781,6402.279098408293,3836.1657601042875,0.041676616999118274,-1.5291197097957778,0.0,0.10179867520734713,0.10179867520734713,0.0,0.12217304763960307,-1.3089969389957472,0.0,0.0,0.0,0.0,16.54534167379124,35.279999999999944,1.0,0.0
15,7.5,6527165.279464841,1800540.852141049,28771.80351544977,-1782.6818117216676,6401.1251890033955,3836.1485197570228,0.04575557459920171,-1.5250407521956946,0.0,0.10245767083556485,0.10245767083556485,0.0,0.12217304763960307,-1.3089969389957472,0.0,0.0,0.0,0.0,16.54534167379124,35.29999999999994,1.0,0.0
16,8.0,6526273.93855898,1803741.4147355508,30689.87777532828,-1786.8723126734876,6399.969224992736,3836.130047990972,0.04985931043490613,-1.5209370163599902,0.0,0.10296799705005667,0.10296799705005667,0.0,0.12217304763960307,-1.3089969389957472,0.0,0.0,0.0,0.0,19.547717285247266,35.319999999999936,1.0,0.0
17,8.5,6525380.502402643,1806941.399348047,32607.942799323766,-1791.0622393584397,6398.811206748711,3836.110344812855,0.053982234536275445,-1.516814092258621,0.0,0.10336319367055913,0.10336319367055913,0.0,0.12217304763960307,-1.3089969389957472,0.0,0.0,0.0,0.0,19.547717285247266,35.33999999999993,1.0,0.0
18,9.0,6524484.971282964,1810140.8049514215,34525.99797173019,-1795.251590431878,6397.651134644378,3836.0894102297884,0.05811417754546045,-1.512676308764321,0.0,0.10274812083543304,0.10366923393347624,0.0,0.12217304763960307,-1.3089969389957472,0.0,0.0,0.0,0.0,19.547717285247266,35.35999999999993,1.0,0.0
19,9.5,6523587.345487747,1813339.6305187435,36444.042676845085,-1799.4403645493405,6396.489009053451,3836.067244249283,0.06220811882121165,-1.508527018156135,0.0,0.10087577317980966,0.10390623151307925,0.0,0.12217304763960307,-1.3089969389957472,0.0,0.0,0.0,0.0,19.547717285247266,35.379999999999924,1.0,0.0
20,10.0,6522687.625305473,1816537.8750232703,38362.076298969725,-1803.6285603665506,6395.324830350306,3836.043846879244,0.0662169216365187,-1.504368816438956,0.0,0.09804717787914094,0.10408976243872381,0.0,0.12217304763960307,-1.3089969389957472,0.0,0.0,0.0,0.0,19.547717285247266,35.39999999999992,1.0,0.0
21,10.5,6521785.81102529,1819735.5374384455,40280.098222409346,-1807.8161765394163,6394.158598909978,3836.019218127974,0.0701049375783855,-1.5002037139589728,0.0,0.0945103177486856,0.10423188878754296,0.0,0.12217304763960307,-1.3089969389957472,0.0,0.0,0.0,0.0,19.962738162551005,35.419999999999916,1.0,0.0
22,11.0,6520881.90293702,1822932.6167379005,42198.10783147333,-1812.0032117240319,6392.990315108159,3835.9933580041697,0.07384597072195645,-1.496033267528274,0.0,0.09046840136540289,0.10434195143206851,0.0,0.12217304763960307,-1.3089969389957472,0.0,0.0,0.0,0.0,19.962738162551005,35.43999999999991,1.0,0.0
23,11.5,6519975.901331158,1826129.1118954546,44116.104510475416,-1816.1896645766772,6391.8199793212025,3835.9662665169235,0.07742156009019913,-1.4918586827421412,0.0,0.08608692660138416,0.1044271839439891,0.0,0.12217304763960307,-1.3089969389957472,0.0,0.0,0.0,0.0,19.962738162551005,35.45999999999991,1.0,0.0
24,12.0,6519067.80649887,1829325.0218851152,46034.087643733874,-1820.3755337538187,6390.647591926119,3835.9379436757226,0.08081953388558903,-1.48768089321356,0.0,0.0814997064110652,0.1044931880012204,0.0,0.12217304763960307,-1.3089969389957472,0.0,0.0,0.0,0.0,19.962738162551005,35.479999999999905,1.0,0.0
25,12.5,6518157.618731993,1832520.3456810783,47952.05661557174,-1824.56081791211,6389.47315330058,3835.90838949045,0.08403279549615954,-1.483500621932427,0.0,0.0768140027560074,0.10454430154314033,0.0,0.12217304763960307,-1.3089969389957472,0.0,0.0,0.0,0.0,19.962738162551005,35.4999999999999,1.0,0.0
26,13.0,6517245.338323037,1835715.0822577286,49870.01081031696,-1828.745515708392,6388.296663822913,3835.8776039713844,0.08705830690750181,-1.4793184287821177,0.0,0.0721148946496718,0.10458388387000311,0.0,0.12217304763960307,-1.3089969389957472,0.0,0.0,0.0,0.0,19.054529212926,35.5199999999999,1.0,0.0
27,13.5,6516330.965565183,1838909.23058964,51787.949612302655,-1832.9296257996934,6387.118123872105,3835.8455871291985,0.08989624001296503,-1.4751347473363186,0.0,0.06746898905971009,0.10461453642392565,0.0,0.12217304763960307,-1.3089969389957472,0.0,0.0,0.0,0.0,19.054529212926,35.53999999999989,1.0,0.0
28,14.0,6515414.500752283,1842102.7896515762,53705.87240586725,-1837.113146843231,6385.937533827802,3835.812338974961,0.09254927050906603,-1.4709499133544917,0.0,0.06292756846807884,0.10463827376168326,0.0,0.12217304763960307,-1.3089969389957472,0.0,0.0,0.0,0.0,19.054529212926,35.55999999999989,1.0,0.0
29,14.5,6514495.944178862,1845295.7584184902,55623.778575354736,-1841.2960774964106,6384.754894070308,3835.7778595201366,0.09502199268113573,-1.4667641868487653,0.0,0.05852925595616891,0.10465665595604276,0.0,0.12217304763960307,-1.3089969389957472,0.0,0.0,0.0,0.0,19.054529212926,35.579999999999885,1.0,0.0
30,15.0,6513575.296140113,1848488.1358655253,57541.667505114805,-1845.4784164168268,6383.570204980585,3835.742148776584,0.09732043650293816,-1.4625777691725308,0.0,0.054302267488960346,0.10467089112735477,0.0,0.12217304763960307,-1.3089969389957472,0.0,0.0,0.0,0.0,19.054529212926,35.59999999999988,1.0,0.0
31,15.5,6512652.5569319045,1851679.9209680157,59459.538579503096,-1849.6601622622638,6382.383466940253,3835.7052067565583,0.09945167116061507,-1.458390816253855,0.0,0.05026631138913804,0.10468191484401877,0.0,0.12217304763960307,-1.3089969389957472,0.0,0.0,0.0,0.0,18.243373914781426,35.61999999999988,1.0,0.0
32,16.0,6511727.726850773,1854871.1127014859,61377.39118288137,-1853.841313690696,6381.1946803315905,3835.667033472709,0.10142348142417101,-1.4542034488434328,0.0,0.04643418661923714,0.10469045161020339,0.0,0.12217304763960307,-1.3089969389957472,0.0,0.0,0.0,0.0,18.243373914781426,35.63999999999987,1.0,0.0
33,16.5,6510800.806193928,1858061.7100416517,63295.22469961773,-1858.021869360288,6380.0038455375325,3835.627628938082,0.1032441052794299,-1.450015760450602,0.0,0.0428131242534102,0.10469706248193675,0.0,0.12217304763960307,-1.3089969389957472,0.0,0.0,0.0,0.0,18.243373914781426,35.65999999999987,1.0,0.0
34,17.0,6509871.795259248,1861251.7119644205,65213.038514086766,-1862.2018279293952,6378.810962941673,3835.5869931661177,0.10492202294385475,-1.445827823488994,0.0,0.03940591026921118,0.10470218194100706,0.0,0.12217304763960307,-1.3089969389957472,0.0,0.0,0.0,0.0,18.243373914781426,35.679999999999865,1.0,0.0
35,17.5,6508940.694345283,1864441.1174458913,67130.83201066982,-1866.3811880565645,6377.616032928263,3835.5451261706517,0.10646578885888179,-1.441639694035725,0.0,0.03621182239254921,0.10470614645011111,0.0,0.12217304763960307,-1.3089969389957472,0.0,0.0,0.0,0.0,18.243373914781426,35.69999999999986,1.0,0.0
36,18.0,6508007.503751255,1867629.9254623554,69048.60457375515,-1870.559948400534,6376.41905588221,3835.5020279659147,0.10788389951245224,-1.4374514155169138,0.0,0.03322740907157301,0.10470921656596129,0.0,0.12217304763960307,-1.3089969389957472,0.0,0.0,0.0,0.0,17.833336863404426,35.71999999999986,1.0,0.0
37,18.5,6507072.223777055,1870818.1349902966,70966.3555877381,-1874.7381076202346,6375.220032189081,3835.457698566534,0.10918469102680112,-1.4332630215617466,0.0,0.030447134638596322,0.10471159406367565,0.0,0.12217304763960307,-1.3089969389957472,0.0,0.0,0.0,0.0,17.833336863404426,35.73999999999985,1.0,0.0
38,19.0,6506134.854723245,1874005.745006391,72884.08443702137,-1878.9156643747892,6374.018962235099,3835.4121379875305,0.11037626137301842,-1.429074538212665,0.0,0.027863911257202226,0.10471343519790567,0.0,0.12217304763960307,-1.3089969389957472,0.0,0.0,0.0,0.0,17.833336863404426,35.75999999999985,1.0,0.0
39,19.5,6505195.3968910575,1877192.7544875087,74801.79050601514,-1883.092617323514,6372.815846407143,3835.3653462443217,0.11146641286684894,-1.4248859856369367,0.0,0.02546953526966372,0.1047148609722534,0.0,0.12217304763960307,-1.3089969389957472,0.0,0.0,0.0,0.0,17.833336863404426,35.779999999999845,1.0,0.0
40,20.0,6504253.850582396,1880379.1624107123,76719.4731791373,-1887.2689651259188,6371.610685092751,3835.3173233527195,0.11246261127817021,-1.4206973794520927,0.0,0.023255042992956793,0.10471596509190827,0.0,0.12217304763960307,-1.3089969389957472,0.0,0.0,0.0,0.0,17.833336863404426,35.79999999999984,1.0,0.0
41,20.5,6503310.216099833,1883564.9677532588,78637.13184081367,-1891.4447064417068,6370.403478680117,3835.2680693289317,0.11337195846560655,-1.41650873175235,0.0,0.021210998803679975,0.104716820122169,0.0,0.12217304763960307,-1.3089969389957472,0.0,0.0,0.0,0.0,16.073038972460836,35.81999999999984,1.0,0.0
42,21.0,6502364.493746612,1886750.1694925989,80554.76587547814,-1895.6198399307757,6369.1942275580905,3835.2175841895605,0.1142011759416513,-1.4123200519034693,0.0,0.019327726454356948,0.10471748225760291,0.0,0.12217304763960307,-1.3089969389957472,0.0,0.0,0.0,0.0,16.073038972460836,35.83999999999983,1.0,0.0
43,21.5,6501416.683826647,1889934.766606378,82472.37466757292,-1899.794364253218,6367.98293211618,3835.1658679516045,0.11495659719444774,-1.4081313471582964,0.0,0.017595492933605215,0.10471799501528294,0.0,0.12217304763960307,-1.3089969389957472,0.0,0.0,0.0,0.0,16.073038972460836,35.85999999999983,1.0,0.0
44,22.0,6500466.78664452,1893118.758072436,84389.95760154873,-1903.968278069321,6366.7695927445475,3835.1129206324567,0.11564416695035386,-1.4039426231334347,0.0,0.01600465278386346,0.10471839209483035,0.0,0.12217304763960307,-1.3089969389957472,0.0,0.0,0.0,0.0,16.073038972460836,35.879999999999825,1.0,0.0
45,22.5,6499514.802505486,1896302.1428688085,86307.51406186496,-1908.141580039568,6365.554209834015,3835.0587422499057,0.11626944586550843,-1.3997538841783819,0.0,0.01454575959104389,0.10471869959323186,0.0,0.12217304763960307,-1.3089969389957472,0.0,0.0,0.0,0.0,16.073038972460836,35.89999999999982,1.0,0.0
46,23.0,6498560.731715466,1899484.9199737255,88225.04343298991,-1912.3142688246382,6364.336783776057,3835.0033328221352,0.11683761939251842,-1.3955651336613892,0.0,0.013209650333130258,0.104718937719994,0.0,0.12217304763960307,-1.3089969389957472,0.0,0.0,0.0,0.0,16.873462339607478,35.91999999999982,1.0,0.0
47,23.5,6497604.574581054,1902667.0883656135,90142.54509940099,-1916.486343085407,6363.117314962807,3834.946692367724,0.11735350978673363,-1.3913763741908303,0.0,0.011987507395590246,0.10471912212535861,0.0,0.12217304763960307,-1.3089969389957472,0.0,0.0,0.0,0.0,16.873462339607478,35.93999999999981,1.0,0.0
48,24.0,6496646.331409511,1905848.6470230948,92060.01844558485,-1920.6578014829472,6361.895803787052,3834.8888209056468,0.11782159040107816,-1.3871876077866294,0.0,0.01087090230993198,0.10471926492887296,0.0,0.12217304763960307,-1.3089969389957472,0.0,0.0,0.0,0.0,16.873462339607478,35.95999999999981,1.0,0.0
49,24.5,6495686.00250877,1909029.5949249885,93977.46285603767,-1924.8286426785282,6360.672250642237,3834.829718455273,0.11824600157399029,-1.3829988360130165,0.0,0.0098518246300124,0.10471937551591447,0.0,0.12217304763960307,-1.3089969389957472,0.0,0.0,0.0,0.0,16.873462339607478,35.979999999999805,1.0,0.0
50,25.0,6494723.58818743,1912209.9310503097,95894.8777152653,-1928.9988653336177,6359.446655922461,3834.769385036367,0.11863056754591496,-1.378810060081331,0.0,0.008922698813416924,0.10471946115451941,0.0,0.12217304763960307,-1.3089969389957472,0.0,0.0,0.0,0.0,16.873462339607478,35.9999999999998,1.0,0.0
51,25.5,6493759.088754763,1915389.654378271,97812.26240778349,-1933.1684681098814,6358.219020022481,3834.7078206690894,0.11897881394963672,-1.3746212811060128,0.0,0.008076391509085823,0.10434252083326506,0.0,0.12217304763960307,-1.3089969389957472,0.0,0.0,0.0,0.0,19.194194269268404,36.0199999999998,1.0,0.0
52,26.0,6492792.504520708,1918568.7638882822,99729.61631811803,-1937.3374496691833,6356.989343337707,3834.645025373995,0.11929398551166222,-1.370461754691085,0.0,0.007306211255887967,0.10263449242839458,0.0,0.12217304763960307,-1.3089969389957472,0.0,0.0,0.0,0.0,19.194194269268404,36.03999999999979,1.0,0.0
53,26.5,6491823.835795873,1921747.258559951,101646.93883080503,-1941.5058086735871,6355.757626264206,3834.580999172034,0.11957906367854419,-1.3663814244392742,0.0,0.00660590226013363,0.09991036039510887,0.0,0.12217304763960307,-1.3089969389957472,0.0,0.0,0.0,0.0,19.194194269268404,36.05999999999979,1.0,0.0
54,27.0,6490853.082891536,1924925.1373730833,103564.22933039104,-1945.6735437853554,6354.523869198698,3834.515742084552,0.11983678394578504,-1.3624182107408216,0.0,0.005969633634533326,0.09642981566663948,0.0,0.12217304763960307,-1.3089969389957472,0.0,0.0,0.0,0.0,19.194194269268404,36.079999999999785,1.0,0.0
55,27.5,6489880.246119644,1928102.3993076826,105481.48720143332,-1949.8406536669506,6353.28807253856,3834.44925413329,0.12006965271974122,-1.3586001330934736,0.0,0.005391985239486312,0.09240586027437887,0.0,0.12217304763960307,-1.3089969389957472,0.0,0.0,0.0,0.0,19.194194269268404,36.09999999999978,1.0,0.0
56,28.0,6488905.32579281,1931279.043343952,107398.71182849997,-1954.007136981036,6352.0502366818255,3834.3815353403843,0.12027996358645741,-1.3549471012484051,0.0,0.004867931063477299,0.08801215798216185,0.0,0.12217304763960307,-1.3089969389957472,0.0,0.0,0.0,0.0,18.940640845525845,36.11999999999978,1.0,0.0
57,28.5,6487928.322224319,1934455.068462293,109315.90259617017,-1958.172992390475,6350.8103620271795,3834.312585728366,0.12046981289703548,-1.3514724235241662,0.0,0.004392820907312793,0.08338930627894978,0.0,0.12217304763960307,-1.3089969389957472,0.0,0.0,0.0,0.0,18.940640845525845,36.13999999999977,1.0,0.0
58,29.0,6486949.235728124,1937630.4736433064,111233.05888903435,-1962.3382185583325,6349.568448973963,3834.242405320161,0.12064111460822369,-1.3481840738637754,0.0,0.0039623609922415735,0.07865018124423148,0.0,0.12217304763960307,-1.3089969389957472,0.0,0.0,0.0,0.0,18.940640845525845,36.15999999999977,1.0,0.0
59,29.5,6485968.066618845,1940805.2578677933,113150.18009169443,-1966.5028141478751,6348.324497922173,3834.170994139092,0.12079561434044493,-1.3450857533634673,0.0,0.003572593990638589,0.07388448614239435,0.0,0.12217304763960307,-1.3089969389957472,0.0,0.0,0.0,0.0,18.940640845525845,36.179999999999765,1.0,0.0
60,30.0,6484984.815211771,1943979.4201167545,115067.26558876398,-1970.6667778225715,6347.078509272457,3834.0983522088745,0.12067861646220576,-1.342056369272226,0.0002513274122871835,-0.02085815996864472,0.08084092282366542,0.023624776754995247,0.0,-0.992941292965304,0.13506222444508484,276728.0,35123.0,0.0,18.940640845525845,36.15999999999977,2.0,1.0
61,30.5,6483999.4818228595,1947152.9593713908,116984.31476486842,-1974.8301082460923,6345.830483426123,3834.0244795536214,0.11964302223509754,-1.338765423161769,0.0013909464305621882,-0.03977733583471371,0.08622798738964176,0.04191980387406356,0.0,-0.9934749030827842,0.13522083806311272,276728.0,35123.0,0.0,20.097780514240615,36.13999999999977,2.0,1.0
62,31.0,6483012.066768737,1950325.874613104,118901.32700464524,-1978.9928040823117,6344.580420785128,3833.9493761978392,0.11789606699542513,-1.3352719234236312,0.0032184584685141615,-0.05442834562539754,0.09039973018953382,0.056087472875070064,0.0,-0.9940088728464851,0.13537982238132312,276728.0,35123.0,0.0,20.097780514240615,36.11999999999978,2.0,1.0
63,31.5,6482022.5703666955,1953498.1648234965,120818.30169274416,-1983.1548639953069,6343.328321752086,3833.8730421664304,0.11559823378762299,-1.3316215661562174,0.00557867486090398,-0.0657740876073031,0.09363032781377023,0.0670589157494495,0.0,-0.9945432022744152,0.13553917869273133,276728.0,35123.0,0.0,20.097780514240615,36.09999999999978,2.0,1.0
64,32.0,6481030.992934698,1956669.8289843726,122735.23821382738,-1987.3162866493587,6342.074186730262,3833.7954774846926,0.1128738006813012,-1.3278497384181325,0.008351417505370464,-0.07456023019809077,0.0961321026139789,0.07555520111136893,0.0,-0.9950778913835382,0.13569890829633502,276728.0,35123.0,0.0,20.097780514240615,36.079999999999785,2.0,1.0
65,32.5,6480037.334791373,1959840.8660777376,124652.13595256973,-1991.4770707089524,6340.81801612358,3833.716682178318,0.1098190086135658,-1.3239838439475597,0.011443620479445119,-0.08136421902039674,0.09806947701926051,0.08213472449563934,0.0,-0.9956129401897684,0.13585901249714857,276728.0,35123.0,0.0,20.097780514240615,36.05999999999979,2.0,1.0
66,33.0,6479041.596256019,1963011.2750857994,126568.99429365889,-1995.6372148387777,6339.559810336611,3833.6366562733947,0.10650838656611171,-1.3200451041993484,0.014783213532768342,-0.08663322796439048,0.09956977975871058,0.08722990740441834,0.0,-0.9961483487079673,0.1360194926062378,276728.0,35123.0,0.0,20.025466877975937,36.03999999999979,2.0,1.0
67,33.5,6478043.777648599,1966181.0549909677,128485.81262179559,-1999.7967177037297,6338.2995697745855,3833.5553997964053,0.10299964978236345,-1.3160499530681335,0.018314385463461653,-0.09071354849061922,0.10073161420014072,0.09117561704897681,0.0,-0.9966841169519388,0.13618034994075479,276728.0,35123.0,0.0,20.025466877975937,36.0199999999998,2.0,1.0
68,34.0,6477043.879289747,1969350.204775855,130402.59032169379,-2003.9555779689083,6337.037294843384,3833.472912774228,0.09933749294682898,-1.312011116961921,0.021993916076790365,-0.09387334870613077,0.10163133879158422,0.09423117459772289,0.0,-0.9972202449344255,0.13634158582397302,276728.0,35123.0,0.0,20.025466877975937,35.9999999999998,2.0,1.0
69,34.5,6476041.901500762,1972518.7234232766,132319.3267780809,-2008.11379429962,6335.772985949542,3833.389195234136,0.09555652762319128,-1.3079384512110703,0.02578833565395193,-0.09632029799302291,0.10232808551519806,0.09659739836347185,0.0,-0.9977567326671043,0.13650320158532275,276728.0,35123.0,0.0,20.025466877975937,35.979999999999805,2.0,1.0
70,35.0,6475037.844603613,1975686.6099162514,134236.02137569795,-2012.2713653613773,6334.506643500248,3833.3042472037973,0.09168355700636643,-1.3038395877834117,0.029671725244705655,-0.09821521552079218,0.10286764617796462,0.09842980204766784,0.0,-0.9982935801605824,0.13666519856042667,276728.0,35123.0,0.0,20.025466877975937,35.95999999999981,2.0,1.0
71,35.5,6474031.708920932,1978853.8632380015,136152.67349929985,-2016.4282898198996,6333.238267903343,3833.2180687112755,0.08773933749049746,-1.2997204368748332,0.03362401321398514,-0.0996826396542967,0.10328548195521105,0.09984881546070921,0.0,-0.9988307874243931,0.13682757809113566,276728.0,35123.0,0.0,19.900528758871566,35.93999999999981,2.0,1.0
72,36.0,6473023.494776023,1982020.482371953,138069.2825336555,-2020.5845663411133,6331.9678595673195,3833.1306597850285,0.08373994282720873,-1.2955855753410301,0.037629656087595,-0.10081901290328261,0.10360905398111069,0.10094769944776845,0.0,-0.9993683544669919,0.13699034152556497,276728.0,35123.0,0.0,19.900528758871566,35.91999999999982,2.0,1.0
73,36.5,6472013.202492852,1985186.4663017367,139985.847863548,-2024.7401935911525,6330.695418901327,3833.04202045391,0.07969782052975813,-1.291438547499053,0.041676616999118274,-0.10169902034729729,0.10385962815796736,0.10179867520734713,0.0,-0.9999062812957512,0.13715349021813059,276728.0,35123.0,0.0,19.900528758871566,35.89999999999982,2.0,1.0
74,37.0,6471000.8323960565,1988351.8140111873,141902.36887377495,-2028.8951702363597,6329.420946315164,3832.952150747169,0.07562260995241257,-1.2872820980680264,0.04575557459920171,-0.10238049811194226,0.10405367280052516,0.10245767083556485,0.0,-1.0004445679169578,0.1373170255295858,276728.0,35123.0,0.0,19.900528758871566,35.879999999999825,2.0,1.0
75,37.5,6469986.3848109385,1991516.5244843448,143818.84494914854,-2033.0494949432855,6328.144442219282,3832.8610506944487,0.07152177581111635,-1.2831183525584393,0.04985931043490613,-0.10290823449288333,0.10420394097172192,0.10296799705005667,0.0,-1.000983214335807,0.13748094882705808,276728.0,35123.0,0.0,19.900528758871566,35.85999999999983,2.0,1.0
76,38.0,6468969.860063467,1994680.5967054544,145735.27547449575,-2037.2031663786893,6326.865907024787,3832.7687203257883,0.06740109878189675,-1.2789489569656154,0.053982234536275445,-0.1032539929337515,0.1043203086434967,0.10336319367055913,0.0,-1.0015222205563996,0.13764526148408615,276728.0,35123.0,0.0,20.115082790983685,35.83999999999983,2.0,1.0
77,38.5,6467951.258480278,1997844.0296589667,147651.65983465864,-2041.3561832095402,6325.5853411434355,3832.6751596716213,0.06327610469197287,-1.2747751859483327,0.05812001803057565,-0.10239670958112952,0.1044104237685191,0.10366923393347624,0.0,-1.0020615865817373,0.13780996488065744,276728.0,35123.0,0.0,20.115082790983685,35.81999999999984,2.0,1.0
78,39.0,6466930.580388673,2001006.8223295384,149567.99741449446,-2045.5085441030167,6324.302744987636,3832.5803687627767,0.05919819443483129,-1.270598026602349,0.06226930863876154,-0.10034001757289825,0.10448020892133643,0.10390623151307925,0.0,-1.0026013124137176,0.1379750604032457,276728.0,35123.0,0.0,20.115082790983685,35.79999999999984,2.0,1.0
79,39.5,6465907.8261166215,2004168.9737020321,151484.28759887585,-2049.660247726508,6323.018118970452,3832.484347630478,0.055212296274124925,-1.2664182433346198,0.0664275103559405,-0.09737475454193688,0.10453425054367817,0.10408976243872381,0.0,-1.0031413980531307,0.13814054944484883,276728.0,35123.0,0.0,20.115082790983685,35.779999999999845,2.0,1.0
80,40.0,6464882.995992758,2007330.4827615174,153400.52977269108,-2053.811292747613,6321.731463505594,3832.387096306345,0.05135224123676125,-1.2622364281018905,0.07059261283592369,-0.09374030186008882,0.10457610037601961,0.10422900117723997,0.0,-1.0036818434996548,0.13830643340502713,276728.0,35123.0,0.0,20.115082790983685,35.75999999999985,2.0,1.0
81,40.5,6463856.090346385,2010491.34849327,155316.72332084426,-2057.9616778341433,6320.442779007428,3832.288614822391,0.04764273781836957,-1.258053039315465,0.07475569216008608,-0.08963262310827647,0.10460850888618482,0.10329716297665925,0.0,-1.0042226487518517,0.13847271368994168,276728.0,35123.0,0.0,20.078021144184277,35.73999999999985,2.0,1.0
82,41.0,6462827.109507468,2013651.5698827738,157232.86762825545,-2062.1114016541205,6319.15206589097,3832.1889032110253,0.044101037333352244,-1.2538684319690572,0.07886934660665565,-0.08521112836959577,0.10463360603645677,0.10122648836230026,0.0,-1.004763813807162,0.138639391712393,276728.0,35123.0,0.0,20.078021144184277,35.71999999999986,2.0,1.0
83,41.5,6461796.05380664,2016811.1459157192,159148.96207986097,-2066.260462875779,6317.85932457189,3832.0879615050517,0.04073833517225538,-1.2496828809697993,0.08289093529044085,-0.0806045287808908,0.10465304126962736,0.0982948589809572,0.0,-1.0053053386619015,0.13880646889186016,276728.0,35123.0,0.0,20.078021144184277,35.69999999999986,2.0,1.0
84,42.0,6460762.923575202,2019970.075578005,161065.0060606135,-2070.4088601675644,6316.564555466506,3831.985789737669,0.037560946883473764,-1.245496599205774,0.08678841918847849,-0.07591582340660184,0.10466809191419467,0.09473089616361997,0.0,-1.0058472233112572,0.13897394665453977,276728.0,35123.0,0.0,20.078021144184277,35.679999999999865,2.0,1.0
85,42.5,6459727.719145118,2023128.3578557384,162980.99895548233,-2074.5565921981365,6315.267758991789,3831.8823879424717,0.03457129251460503,-1.241309751537513,0.0905384707854797,-0.07122654110717623,0.10467974713334759,0.09072166372196197,0.0,-1.0063894677492813,0.13914182643338577,276728.0,35123.0,0.0,20.078021144184277,35.65999999999987,2.0,1.0
86,43.0,6458690.440849019,2026285.9917352342,164896.94014945356,-2078.703657636367,6313.968935565362,3831.7777561534485,0.031768717915922624,-1.237122465633012,0.09412488014970044,-0.06660034327235378,0.10468877293505961,0.08641924495986741,0.0,-1.0069320719688886,0.13931010966814902,276728.0,35123.0,0.0,19.804522395690526,35.63999999999987,2.0,1.0
87,43.5,6457651.089020201,2029442.976203017,166812.82902753027,-2082.8500551513425,6312.668085605496,3831.6718944049835,0.0291501776243848,-1.2329348403583666,0.09753721404257239,-0.06208607873707851,0.1046957625159054,0.08194635161785549,0.0,-1.0074750359618507,0.1394787978054175,276728.0,35123.0,0.0,19.804522395690526,35.61999999999988,2.0,1.0
88,44.0,6456609.663992626,2032599.3102458196,168728.66497473276,-2086.995783412363,6311.365209531117,3831.5648027318557,0.02671080042442286,-1.2287469522754815,0.10076969075184965,-0.057720369598631936,0.10470117524731239,0.0774011010047571,0.0,-1.0080183597187928,0.1396478922986565,276728.0,35123.0,0.0,19.804522395690526,35.59999999999988,2.0,1.0
89,44.5,6455566.166100919,2035754.9928505851,170644.4473760987,-2091.1408410889426,6310.060307761799,3831.4564811692385,0.02444435564598638,-1.2245588606738953,0.10382023859550736,-0.05352979575025019,0.10470536686651395,0.07286107896728813,0.0,-1.0085620432291886,0.13981739460824952,276728.0,35123.0,0.0,19.804522395690526,35.579999999999885,2.0,1.0
90,45.0,6454520.595680375,2038910.023004466,172560.1756166833,-2095.285226850811,6308.753380717766,3831.3469297527013,0.022343635645451422,-1.2203706114674273,0.10668971058268238,-0.04953273651489464,0.10470861285642365,0.06838679022929113,0.0,-1.0091060864813557,0.1399873062015389,276728.0,35123.0,0.0,19.804522395690526,35.55999999999989,2.0,1.0
91,45.5,6453472.953066949,2042064.3996948248,174475.84908155963,-2099.428939367913,6307.444428819895,3831.2361485182073,0.02040076766416776,-1.2161822402117386,0.10938123163459017,-0.04574091960810155,0.10471112655100971,0.06402458367197429,0.0,-1.0096504894624514,0.1401576285528672,276728.0,35123.0,0.0,19.875880332242446,35.53999999999989,2.0,1.0
92,46.0,6452423.2385972645,2045218.1219092347,176391.46715581874,-2103.5719773104083,6306.13345248971,3831.1241375021154,0.018607466323312137,-1.2119937744411335,0.1118996581459835,-0.04216072061147905,0.10471307315609717,0.059809128040375484,0.0,-1.0101952521584685,0.14032836314361868,276728.0,35123.0,0.0,19.875880332242446,35.5199999999999,2.0,1.0
93,46.5,6451371.45260861,2048371.1886354794,178307.0292245698,-2107.714339348675,6304.82045214939,3831.0108967411793,0.0169552363495566,-1.2078052354781772,0.11425113257875322,-0.038794250051136875,0.10471458060707689,0.05576550310232121,0.0,-1.0107403745542305,0.1404995114622611,276728.0,35123.0,0.0,19.875880332242446,35.4999999999999,2.0,1.0
94,47.0,6450317.595438935,2051523.5988615542,180222.53467294038,-2111.8560241533055,6303.505428221759,3830.8964262725476,0.015435533696775451,-1.2036166398350638,0.11644271828656887,-0.035640259920106256,0.1047157479771156,0.05191096223929186,0.0,-1.0112858566333867,0.1406710750043878,276728.0,35123.0,0.0,19.875880332242446,35.479999999999905,2.0,1.0
95,47.5,6449261.667426858,2054675.351575665,182137.98288607664,-2115.997030395111,6302.188381130294,3830.7807261337634,0.014039892002471065,-1.1994280002988371,0.11848210192756752,-0.032694896949406714,0.10471665198847356,0.04825641462681664,0.0,-1.0118316983784086,0.14084305527276,276728.0,35123.0,0.0,19.875880332242446,35.45999999999991,2.0,1.0
96,48.0,6448203.66891166,2057826.44576623,184053.37324914354,-2120.1373567451187,6300.869311299121,3830.663796362765,0.012760020265964477,-1.1952393267717831,0.12037735267833972,-0.029952326022238903,0.10471735205486916,0.04480766840268242,0.0,-1.0123778997705848,0.14101545377734967,276728.0,35123.0,0.0,20.174690406144247,35.43999999999991,2.0,1.0
97,48.5,6447143.600233288,2060976.8804218797,185968.70514732492,-2124.2770018745746,6299.548219153016,3830.5456369978856,0.011587876734570821,-1.1910506269222327,0.12213672905787003,-0.027405243755944123,0.10471789418628592,0.04156647038299089,0.0,-1.0129244607900163,0.14118827203538242,276728.0,35123.0,0.0,20.174690406144247,35.419999999999916,2.0,1.0
98,49.0,6446081.46173235,2064126.6545314563,187883.97796582387,-2128.415964454943,6298.225105117405,3830.4262480778534,0.010515723213102866,-1.186861906688541,0.1237685255402352,-0.025045299374060494,0.10471831401285506,0.03853137284608852,0.0,-1.0134713814156124,0.1413615115713808,276728.0,35123.0,0.0,20.174690406144247,35.39999999999992,2.0,1.0
99,49.5,6445017.253750123,2067275.767084015,189799.19108986278,-2132.554243157907,6296.899969618362,3830.3056296417913,0.00953616335307102,-1.1826731706693705,0.12528095231057262,-0.02286343749283984,0.1047186391265502,0.03569845355589742,0.0,-1.0140186616250857,0.14153517391720788,276728.0,35123.0,0.0,20.174690406144247,35.379999999999924,2.0,1.0
100,50.0,6443950.976628544,2070424.2170688242,191714.3439046837,-2136.691836655368,6295.57281308261,3830.1837817292167,0.008642167915269188,-1.178484422425925,0.12668204252680462,-0.02085017529816018,0.10471889089459573,0.033061911446493925,0.0,-1.014566301394948,0.14170926061211128,276728.0,35123.0,0.0,20.174690406144247,35.35999999999993,2.0,1.0
101,50.5,6442882.630710216,2073572.0034753655,193629.43579554828,-2140.828743619449,6294.243635937523,3830.0607043800424,0.007827089519563396,-1.174295664716001,0.12797958231296094,-0.018995824742348958,0.10471908586377018,0.03061455715842917,0.0,-1.0151143007005048,0.14188377320276727,276728.0,35123.0,0.0,20.14430748210309,35.33999999999993,2.0,1.0
102,51.0,6441812.216338406,2076719.1252933342,195544.4661477383,-2144.9649627224912,6292.912438611123,3829.9363976345753,0.007084668986980647,-1.1701068996752362,0.129181059448691,-0.01729066880482283,0.10471923684789887,0.02834821483439975,0.0,-1.015662659515852,0.1420587132433254,276728.0,35123.0,0.0,20.14430748210309,35.319999999999936,2.0,1.0
103,51.5,6440739.733857045,2079865.5815126398,197459.4343465556,-2149.1004926370565,6291.579221532082,3829.810861533518,0.006409035031566179,-1.165918128957468,0.13029362735101127,-0.015725099499951687,0.10471935377000813,0.02625404918683487,0.0,-1.0162113778138697,0.14223408229545334,276728.0,35123.0,0.0,20.14430748210309,35.29999999999994,2.0,1.0
104,52.0,6439665.183610726,2083011.3711234059,199374.33977732234,-2153.2353320359284,6290.243985129718,3829.684096117968,0.005794698764254357,-1.1617293538434286,0.13132408148346,-0.014289724149244756,0.10471944431448954,0.024322829790184426,0.0,-1.016760455566219,0.14240988192838214,276728.0,35123.0,0.0,20.14430748210309,35.279999999999944,2.0,1.0
105,52.5,6438588.565944708,2086156.4931159706,201289.18182538133,-2157.3694795921115,6288.9067298340005,3829.556101429416,0.005236544220691438,-1.1575405753249164,0.13227884578756888,-0.012975445436061533,0.10471951443213595,0.02254514278057213,0.0,-1.0173098927433366,0.14258611371895158,276728.0,35123.0,0.0,20.14430748210309,35.25999999999995,2.0,1.0
106,53.0,6437509.8812049115,2089300.9464808877,203203.95987609602,-2161.502933978832,6287.567456075546,3829.4268775097485,0.004729815913101036,-1.153351794169981,0.13316396712308867,-0.011773519906398211,0.10471956873124133,0.020911558625493598,0.0,-1.0178596893144296,0.14276277925165615,276728.0,35123.0,0.0,20.12643230366785,35.23999999999995,2.0,1.0
107,53.5,6436429.129737922,2092444.7302089254,205118.6733148509,-2165.6356938695385,6286.226164285619,3829.2964244012474,0.004270104227333299,-1.1491630109733992,0.13398511603637095,-0.010675598848845131,0.10471961078046853,0.01941276332214286,0.0,-1.018409845247472,0.1429398801186912,276728.0,35123.0,0.0,20.12643230366785,35.219999999999956,2.0,1.0
108,54.0,6435346.311890988,2095587.8432910682,207033.3215270515,-2169.767757937902,6284.882854896134,3829.1647421465887,0.0038533293353983224,-1.1449742261957665,0.13474759245904072,-0.009673754863219416,0.10471964334339008,0.018039659265077782,0.0,-1.0189603605091988,0.14311741791999932,276728.0,35123.0,0.0,20.12643230366785,35.19999999999996,2.0,1.0
109,54.5,6434261.428012019,2098730.2847185163,208947.9038981248,-2173.8991248578163,6283.5375283396515,3829.031830788843,0.0034757241669338386,-1.1407854401937678,0.1354563351787783,-0.008760496895668317,0.10471966856011652,0.01678344106660157,0.0,-1.0195112350651026,0.1432953942633174,276728.0,35123.0,0.0,20.12643230366785,35.179999999999964,2.0,1.0
110,55.0,6433174.4784495905,2101872.053482686,210862.4198135192,-2178.0297933033994,6282.190185049381,3828.8976903714756,0.003133816876655748,-1.1365966532436202,0.136115934126853,-0.007928776065271549,0.10471968808794947,0.015635650794216204,0.0,-1.0200624688794269,0.14347381076422355,276728.0,35123.0,0.0,20.12643230366785,35.15999999999997,2.0,3.0
111,55.5,6432085.463552939,2105013.148575211,212776.86865870495,-2182.1597619489926,6280.84082545918,3828.7623209383473,0.0028244131558455773,-1.1324078655592262,0.1367306446983497,-0.0071719842221716155,0.10471970321030331,0.014588216389566179,0.0,-1.0206140619151634,0.14365266904618482,276728.0,35123.0,0.0,20.127158746982264,35.13999999999997,2.0,3.0
112,56.0,6430994.3836719645,2108153.5689879404,214691.24981917412,-2186.289029469162,6279.489450003553,3828.6257225337126,0.00254457866173088,-1.1282190773062317,0.13730440346539574,-0.006483946850388025,0.10471971492105413,0.013633476435811809,0.0,-1.0211660141340457,0.14383197074060491,276728.0,35123.0,0.0,20.127158746982264,35.119999999999976,2.0,3.0
113,56.5,6429901.23915723,2111293.3137129424,216605.56268044098,-2190.417594538698,6278.136059117653,3828.487895202221,0.0022916217769740595,-1.124030288612913,0.137840844765073,-0.005858911651408819,0.10471972398985956,0.012764193930980935,0.0,-1.0217183254965454,0.14401171748687247,276728.0,35123.0,0.0,20.127158746982264,35.09999999999998,2.0,3.0
114,57.0,6428806.03035996,2114432.381742501,218519.8066280421,-2194.545455832616,6276.780653237278,3828.3488389889167,0.002063076860483981,-1.1198414995786072,0.13834331774549186,-0.00529153391023394,0.10471973101274248,0.011973561291135323,0.0,-1.0222709959618668,0.14419191093240954,276728.0,35123.0,0.0,20.127158746982264,35.079999999999984,2.0,3.0
115,57.5,6427708.757632044,2117570.77206912,220433.98104753657,-2198.672612026158,6275.423232798876,3828.208553939239,0.0018566881087614423,-1.115652710280241,0.13881490353861872,-0.0047768595475961,0.10471973645126302,0.011255198438436451,0.0,-1.022824025487942,0.14437255273272065,276728.0,35123.0,0.0,20.127158746982264,35.05999999999999,2.0,3.0
116,58.0,6426609.421326031,2120708.483685519,222348.0853245062,-2202.7990617947908,6274.06379823954,3828.0670400990216,0.001670394112580288,-1.1114639207773862,0.13925843229939266,-0.004310306595291947,0.10471974066285332,0.010603145516158395,0.0,-1.0233774140314265,0.14455364455144185,276728.0,35123.0,0.0,20.045372678393107,35.03999999999999,2.0,3.0
117,58.5,6425508.021795133,2123845.515584639,224262.1188445557,-2206.9248038142086,6272.702349997012,3827.924297514492,0.0015023131657920215,-1.1072751311161757,0.13967649990958578,-0.0038876456913482017,0.10471974392430886,0.010011851507399479,0.0,-1.0239311615476938,0.14473518806039043,276728.0,35123.0,0.0,20.045372678393107,35.019999999999996,2.0,3.0
118,59.0,6424404.559393226,2126981.8667596374,226176.08099331293,-2211.0498367603323,6271.338888509679,3827.7803262322736,0.0013507293604004779,-1.1030863413323344,0.1400714841935937,-0.0035049800741952138,0.10471974644998001,0.009476159809815725,0.0,-1.024485267990831,0.14491718493961497,276728.0,35123.0,0.0,20.045372678393107,35.0,2.0,3.0
119,59.5,6423299.034474846,2130117.5362038924,228089.97115642906,-2215.1741593093097,6269.973414216576,3827.635126299384,0.0012140794839132962,-1.098897551453528,0.1404455605334591,-0.0031587254567491925,0.10471974840585976,0.008991291629218912,0.0,-1.025039733313633,0.1450996368774455,276728.0,35123.0,0.0,20.045372678393107,34.980000000000004,2.0,3.0
120,60.0,6422191.4473951915,2133252.5229110005,230003.78871957876,-2219.2977701375166,6268.605927557384,3827.488697763235,0.0010909407205974388,-1.0947087615011806,0.14080071680328088,-0.002845590079418537,0.10471974992049304,0.008552827895255131,0.0,-1.0255945574675989,0.14528254557054443,276728.0,35123.0,0.0,20.045372678393107,34.96000000000001,2.0,3.0
121,60.5,6421081.798510123,2136386.8258747794,231917.53306846038,-2223.420667921557,6267.236428972431,3827.341040671633,0.000980019147017151,-1.0905234869374925,0.1411387675698888,-0.002562555173065982,0.10396233357021305,0.008156690268223018,0.0,-1.0261497404029263,0.1454659127239574,276728.0,35123.0,0.0,19.85889982009365,34.94000000000001,2.0,3.0
122,61.0,6419970.088176162,2139520.4440892655,233831.2035887962,-2227.5428513382635,6265.864918902689,3827.1921550727793,0.0008801390035806083,-1.0863837575213091,0.14146136752825267,-0.0023068560067498627,0.10177425324584419,0.007799121693638307,0.0,-1.0267052820685054,0.14564974005116493,276728.0,35123.0,0.0,19.85889982009365,34.920000000000016,2.0,3.0
123,61.5,6418856.316750493,2142653.376548717,235744.79966633258,-2231.6643190646973,6264.4913977897795,3827.04204101527,0.0007902327173139233,-1.0823432035468603,0.14177002415737558,-0.0020759636488144723,0.0984987082274073,0.0074766668671672355,0.0,-1.0272611824119164,0.1458340292741341,276728.0,35123.0,0.0,19.85889982009365,34.90000000000002,2.0,3.0
124,62.0,6417740.484590961,2145785.6222476116,237658.32068684022,-2235.7850697781496,6263.1158660759675,3826.8906985480953,0.000709331646336169,-1.0784423579461968,0.14206610959610763,-0.001867567532045227,0.09441838502959005,0.007186152894260581,0.0,-1.0278174413794219,0.14601878212337083,276728.0,35123.0,0.0,19.85889982009365,34.880000000000024,2.0,3.0
125,62.5,6416622.592056071,2148917.1801806497,239571.76603611428,-2239.9051021561413,6261.738324204164,3826.7381277206396,0.0006365575132044583,-1.074710978719666,0.14235087174900934,-0.0016795588828206205,0.08976489478064667,0.0069246703638419956,0.0,-1.0283740589159636,0.14620400033797248,276728.0,35123.0,0.0,19.85889982009365,34.86000000000003,3.0,3.0
126,63.0,6415502.639504993,2152048.049342752,241485.1350999746,-2244.024414876423,6260.358772617928,3826.5843285826827,0.0005711144921628668,-1.0711700081601911,0.1426254446406046,-0.001510015049346523,0.08472683346452867,0.006689555001700648,0.0,-1.0289310349651564,0.14638968566568075,276728.0,35123.0,0.0,19.849234708427687,34.84000000000003,3.0,3.0
127,63.5,6414380.627297555,2155178.228729061,243398.42726426595,-2248.1430066169773,6258.977211761461,3826.4293011843984,0.0005122819141356512,-1.0678332219592386,0.14289085804252613,-0.001357184744184214,0.07945665775701666,0.006478370025065165,0.0,-1.0294883694692838,0.14657583986293515,276728.0,35123.0,0.0,19.849234708427687,34.820000000000036,3.0,3.0
128,64.0,6413256.5557942465,2158307.7173349415,245311.64191485813,-2252.260876056017,6257.593642079612,3826.273045576355,0.00045940755286343646,-1.0647086138445663,0.1431480464025356,-0.0012194742005606966,0.07407654297767233,0.006288889283701286,0.0,-1.0300460623692929,0.1467624646949267,276728.0,35123.0,0.0,19.849234708427687,34.80000000000004,3.0,3.0
129,64.5,6412130.425356219,2161436.514155981,247224.7784376463,-2256.3780218719867,6256.208064017876,3826.115561809515,0.0004119014557320459,-1.0617995549742814,0.14339785710750433,-0.0010954342296811718,0.06868336696061826,0.006119081243507904,0.0,-1.0306041136047885,0.14694956193565206,276728.0,35123.0,0.0,19.849234708427687,34.780000000000044,3.0,3.0
130,65.0,6411002.236345283,2164564.61818799,249137.83621855106,-2260.4944427435626,6254.820478022389,3825.956849935236,0.0003692302834553985,-1.0591057617635393,0.14364105811443112,-0.0009837481568579715,0.06335294396108636,0.005967093844898565,0.0,-1.031162523114029,0.1471371333679681,276728.0,35123.0,0.0,19.849234708427687,34.76000000000005,3.0,3.0
131,65.5,6409871.989123911,2167692.028427001,251050.81464351868,-2264.610137349654,6253.430884539936,3825.796910005269,0.0003309121237370993,-1.0566241010321797,0.14387834498466334,-0.0008832206072274313,0.05814361566314169,0.005831240249324144,0.0,-1.0317212908339204,0.1473251807836469,276728.0,35123.0,0.0,19.90404437414112,34.74000000000005,3.0,3.0
132,66.0,6408739.684055236,2170818.743869271,252963.71309852132,-2268.7251043694027,6252.0392840179475,3825.635742071761,0.00029651174525989433,-1.0543492572319397,0.1441103473568646,-0.0007927671067235384,0.05309929159039792,0.005709985472330755,0.0,-1.032280416700012,0.14751370598343105,276728.0,35123.0,0.0,19.90404437414112,34.720000000000056,3.0,3.0
133,66.5,6407605.321503052,2173944.76351128,254876.5309695572,-2272.839342482184,6250.645676904494,3825.473346187252,0.0002656362597641537,-1.0522742829522083,0.14433763489408274,-0.0007114044604584516,0.048252018444287614,0.005601933889887395,0.0,-1.0328399006464901,0.14770271077708952,276728.0,35123.0,0.0,19.90404437414112,34.70000000000006,3.0,3.0
134,67.0,6406468.90183181,2177070.0863497322,256789.26764265084,-2276.952850367606,6249.250063648296,3825.309722404677,0.00023793116151576494,-1.0503910508368393,0.14456072273964657,-0.0006382418684255642,0.04362414684114974,0.005505817595794434,0.0,-1.033399742606174,0.1478921969834737,276728.0,35123.0,0.0,19.90404437414112,34.680000000000064,3.0,3.0
135,67.5,6405330.425406626,2180194.7113815565,258701.9225038532,-2281.065626705513,6247.852444698715,3825.144870777365,0.00021307671508150695,-1.04869062240475,0.14478007651566008,-0.0005724727372393598,0.03923015436182827,0.0054204855813177865,0.0,-1.0339599425105104,0.14808216643057406,276728.0,35123.0,0.0,19.90404437414112,34.66000000000007,3.0,4.0
136,68.0,6404189.892593274,2183318.637603906,260614.49493924188,-2285.1776701759813,6246.452820505758,3824.9787913590403,0.0001907846639870136,-1.0471635469961007,0.1449961168966566,-0.0005133671462476804,0.035078175567195016,0.005344893703379713,0.0,-1.0345205002895672,0.1482726209555773,276728.0,35123.0,0.0,20.078901197317826,34.64000000000007,3.0,4.0
137,68.5,6403047.303758186,2186441.864014159,262526.9843349214,-2289.288979459324,6245.051191520075,3824.8114842038203,0.00017079523449774756,-1.0458001021136838,0.1452092237895919,-0.00046026492662091747,0.031171282497503387,0.005278095404335152,0.0,-1.0350814158720298,0.1484635624049236,276728.0,35123.0,0.0,20.078901197317826,34.620000000000076,3.0,4.0
138,69.0,6401902.6592684565,2189564.389609919,264439.3900770233,-2293.399553236088,6243.647558192962,3824.6429493662176,0.00015287441041260917,-1.0445904847523093,0.14541974014985318,-0.00041256931279344094,0.02750855301281853,0.0052192331442851994,0.0,-1.0356426891851946,0.14865499263436455,276728.0,35123.0,0.0,20.078901197317826,34.60000000000008,3.0,4.0
139,69.5,6400755.959491839,2192686.2133890153,266351.7115517064,-2297.509390187058,6242.2419209763575,3824.473186901139,0.0001368114563740904,-1.0435249618698026,0.1456279754613856,-0.00036974112678481126,0.0240859590156863,0.005167530505786589,0.0,-1.0362043201549647,0.14884691350902163,276728.0,35123.0,0.0,20.078901197317826,34.580000000000084,3.0,4.0
140,70.0,6399607.204796745,2195807.3343495033,268263.948145157,-2301.618488993254,6240.834280322844,3824.302196863885,0.0001224166687640348,-1.0425939869191367,0.14583420890742763,-0.0003312934573627247,0.02089710201255427,0.005122284930506779,0.0,-1.0367663087058434,0.14903932690344465,276728.0,35123.0,0.0,20.078901197317826,34.56000000000009,3.0,4.0
141,70.5,6398456.395552249,2198927.751489665,270176.099243589,-2305.7268483359317,6239.424636685649,3824.1299793101516,0.00010951933475964582,-1.0417882883039367,0.1460386922567302,-0.0002967867976449376,0.01793381951899015,0.005082861047680851,0.0,-1.03732865476093,0.14923223470167116,276728.0,35123.0,0.0,19.902508521758556,34.54000000000009,3.0,4.0
142,71.0,6397303.532128081,2202047.4638080075,272088.1642332441,-2309.8344668965856,6238.0129905186395,3823.9565342960277,9.796588156306144e-05,-1.0410989347147097,0.14624165248853566,-0.0002658246065073821,0.015186682410168864,0.00504868455500968,0.0,-1.0378913582419136,0.14942563879728601,276728.0,35123.0,0.0,19.902508521758556,34.520000000000095,3.0,4.0
143,71.5,6396148.614894632,2205166.470303267,274000.1425003921,-2313.9413433569466,6236.59934227633,3823.781861877997,8.761819918475685e-05,-1.0405173815294864,0.14644329417802882,-0.00023804926101683008,0.012645400388409953,0.005019236613783612,0.0,-1.0384544190690683,0.14961954109348136,276728.0,35123.0,0.0,19.902508521758556,34.5000000000001,3.0,4.0
144,72.0,6394991.644222953,2208284.769974405,275912.0334313311,-2318.047476398984,6235.183692413877,3823.605962112938,7.835212145345891e-05,-1.0400355018018397,0.14664380166245725,-0.00021313836899589434,0.010299150219534266,0.004994048721427652,0.0,-1.0390178371612477,0.14981394350311725,276728.0,35123.0,0.0,19.902508521758556,34.4800000000001,3.0,4.0
145,72.5,6393832.6204847535,2211402.361820612,277823.83641238755,-2322.1528647049054,6233.766041387079,3823.4288350581223,7.005605114198084e-05,-1.03964560479566,0.14684334100666133,-0.00019080141272188585,0.008136839223795043,0.004972698026264765,0.0,-1.0395816124358792,0.1500088479487826,276728.0,35123.0,0.0,19.902508521758556,34.46000000000011,3.0,4.0
146,73.0,6392671.544052401,2214519.2448413055,279735.5508299166,-2326.257506957157,6232.346389652378,3823.2504807712166,6.26297162395268e-05,-1.0393404445459464,0.14704206178536391,-0.00017077669663247591,0.0061473146468575095,0.0049548030510208185,0.0,-1.0401457448089588,0.15020425636285661,276728.0,35123.0,0.0,19.839186748935997,34.44000000000011,3.0,4.0
147,73.5,6391508.415298922,2217635.4180361317,281647.1760703022,-2330.3614018384246,6230.924737666859,3823.0708993102817,5.5983045467683406e-05,-1.03911322051643,0.14724009869824756,-0.0001528285737397683,0.0043195279399236355,0.004940019793396249,0.0,-1.040710234195045,0.15040017068757058,276728.0,35123.0,0.0,19.839186748935997,34.420000000000115,3.0,4.0
148,74.0,6390343.234598002,2220750.880404965,283558.71151995735,-2334.4645480316335,6229.50108588825,3822.890090733772,5.003515213138445e-05,-1.0389575720778967,0.14743757303259944,-0.00013674492722487748,0.0026426616093932374,0.004928038173865673,0.0,-1.0412750805072546,0.1505965928750704,276728.0,35123.0,0.0,19.839186748935997,34.40000000000012,3.0,4.0
149,74.5,6389176.002323987,2223865.6309479093,285470.1565653242,-2338.5669442199487,6228.075434774919,3822.7080551005365,4.4713416320056076e-05,-1.0388675682368422,0.14763459398712792,-0.00012233488538619604,0.0011062251240499916,0.004918578802703994,0.0,-1.0418402836572562,0.1507935248874793,276728.0,35123.0,0.0,19.839186748935997,34.38000000000012,3.0,4.0
150,75.0,6388006.718851877,2226979.668665297,287381.5105928745,-2342.668589086776,6226.647784785879,3822.5247924698183,3.99526563307829e-05,-1.0388376937949917,0.14783125986945408,-0.00010942674973838689,-0.0002998746355014749,0.004911390040051982,0.0,-1.0424058435552646,0.1509909686969612,276728.0,35123.0,0.0,19.839186748935997,34.36000000000013,3.0,4.0
151,75.5,6386835.384557334,2230092.99255769,289292.7729891094,-2346.7694813157623,6225.218136380784,3822.3403029012543,3.569438097782873e-05,-1.0388628329097473,0.1480276591787508,-9.786611760068555e-05,-0.00158528375802612,0.004906245324605219,0.0,-1.0429717601100361,0.15118892628578434,276728.0,35123.0,0.0,20.090956170527594,34.34000000000013,3.0,4.0
152,76.0,6385661.999816676,2233205.60162588,291203.94314056,-2350.8696195907955,6223.786490019931,3822.154586454876,3.1886115184522774e-05,-1.0389382508481513,0.14822387158404332,-8.751418196950567e-05,-0.002759168618622531,0.004902940748224227,0.0,-1.043538033228862,0.15138739964638584,276728.0,35123.0,0.0,20.090956170527594,34.320000000000135,3.0,4.0
153,76.5,6384486.56500688,2236317.4948708904,293115.02043378743,-2354.9690025960053,6222.352846164257,3821.967643191109,2.8480791927805076e-05,-1.0390595745776519,0.14841996880779354,-7.824619284053748e-05,-0.0038301968610961017,0.004901292855408863,0.0,-1.0441046628175634,0.15158639078143618,276728.0,35123.0,0.0,20.090956170527594,34.30000000000014,3.0,4.0
154,77.0,6383309.0805055825,2239428.6712939725,295026.004255383,-2359.067629015764,6220.917205275343,3821.779473170772,2.543620422606077e-05,-1.0392227727116794,0.14861601542356376,-6.995006542985554e-05,-0.004806529307255023,0.00490113664815035,0.0,-1.044671648780486,0.15178590170390455,276728.0,35123.0,0.0,20.090956170527594,34.28000000000014,3.0,4.0
155,77.5,6382129.546691075,2242539.12989661,296936.89399196836,-2363.1654975346864,6219.47956781541,3821.590076455079,2.2714511430684382e-05,-1.0394241352232092,0.14881206957579168,-6.252512194343162e-05,-0.005695820507010781,0.004902323778163945,0.0,-1.0452389910204933,0.15198593443712458,276728.0,35123.0,0.0,20.090956170527594,34.26000000000015,3.0,4.0
156,78.0,6380947.963942308,2245648.869680518,298847.6890301959,-2367.26260683763,6218.03993424732,3821.399453105637,2.0281794604460888e-05,-1.0396602532520385,0.14900818362900226,-5.588095466214069e-05,-0.00650522602732409,0.0049047209099124895,0.0,-1.0458066894389624,0.1521864910148606,276728.0,35123.0,0.0,19.9967381576409,34.24000000000015,3.0,4.0
157,78.5,6379764.33263889,2248757.8896476417,300758.3887567487,-2371.3589556096954,6216.598305034578,3821.207603184448,1.810765624858834e-05,-1.0399279992588204,0.14920440475313237,-4.9936399147727604e-05,-0.007241414903740021,0.004908208239154132,0.0,-1.0463747439357771,0.1523875734813743,276728.0,35123.0,0.0,19.9967381576409,34.220000000000155,3.0,4.0
158,79.0,6378578.653161084,2251866.188800159,302668.9925583409,-2375.4545425362285,6215.154680641328,3821.0145267539074,1.6164860078138866e-05,-1.040224507718724,0.14940077545104602,-4.461860733759073e-05,-0.00791058595390403,0.004912678152987807,0.0,-1.0469431544093228,0.15258918389149212,276728.0,35123.0,0.0,19.9967381576409,34.20000000000016,3.0,4.0
159,79.5,6377390.925889816,2254973.7661404796,304579.49982171785,-2379.5493663028183,6213.709061532358,3820.8202238768044,1.4429006945964156e-05,-1.0405471564979822,0.14959733403376818,-3.986221118625713e-05,-0.008518486885283876,0.004918034018528044,0.0,-1.0475119207564807,0.15279132431067288,276728.0,35123.0,0.0,19.9967381576409,34.18000000000016,3.0,4.0
160,80.0,6376201.151206665,2258080.6206712457,306489.9099336563,-2383.6434255952986,6212.261448173093,3820.6246946163224,1.2878243380355418e-05,-1.0408935490159361,0.14979411504846263,-3.560856833288126e-05,-0.009070435325575837,0.004924189088419389,0.0,-1.048081042872622,0.1529939968150761,276728.0,35123.0,0.0,19.9967381576409,34.16000000000017,3.0,4.0
161,80.5,6375009.329493867,2261186.751395332,308400.22228096443,-2387.736719099749,6210.811841029603,3820.427939036039,1.1492999534869802e-05,-1.0412614972620398,0.14999114966371624,-3.180508203089715e-05,-0.00957134106930394,0.00493106551240253,0.0,-1.0486505206516017,0.15319720349163088,276728.0,35123.0,0.0,20.096331837557198,34.14000000000017,3.0,4.0
162,81.0,6373815.461134317,2264292.157315847,310310.43625048245,-2391.829245502494,6209.360240568595,3820.2299571999247,1.0255753652182537e-05,-1.0416490057104741,0.15018846601627173,-2.8404588272015462e-05,-0.01002572897254242,0.004938593445072633,0.0,-1.0492203539857539,0.15340094643810512,276728.0,35123.0,0.0,20.096331837557198,34.120000000000175,3.0,4.0
163,81.5,6372619.546511566,2267396.837436131,312220.5512290824,-2395.921003490105,6207.906647257418,3820.0307491723456,9.1508204200069e-06,-1.042054256153511,0.1503860895229638,-2.536480367596809e-05,-0.010437762043460287,0.004946710240828725,0.0,-1.0497905427658842,0.15360522776317542,276728.0,35123.0,0.0,20.096331837557198,34.10000000000018,3.0,4.0
164,82.0,6371421.586009821,2270500.79075976,314130.56660366856,-2400.0119917493985,6206.45106156406,3819.83031501806,8.164160848278475e-06,-1.0424755934576817,0.15058404316126303,-2.264782830356654e-05,-0.010811264372901037,0.004955359727805267,0.0,-1.0503610868812663,0.15381004958649755,276728.0,35123.0,0.0,20.096331837557198,34.08000000000018,3.0,4.0
165,82.5,6370221.580013947,2273604.016290542,316040.4817611776,-2404.1022089674393,6204.9934839571515,3819.6286548022213,7.28321152501057e-06,-1.0429115122334118,0.15078234772150945,-2.0219698087446523e-05,-0.011149743629383741,0.004964491553306529,0.0,-1.0509319862196334,0.15401541403877725,276728.0,35123.0,0.0,20.096331837557198,34.06000000000019,3.0,4.0
166,83.0,6369019.5289094625,2276706.5130325207,317950.2960885787,-2408.1916538315386,6203.533914905961,3819.425768590376,6.496731315432543e-06,-1.0433606443984593,0.15098102203362712,-1.8049982065867358e-05,-0.011456412909243565,0.004974060593935691,0.0,-1.051503240667174,0.15422132326184188,276728.0,35123.0,0.0,19.932440610015984,34.04000000000019,3.0,4.0
167,83.5,6367815.433082547,2279808.2799899736,319860.0089728739,-2412.280325029255,6202.072354880397,3819.2216564484643,5.794663757020373e-06,-1.0438217476076876,0.15118008317084333,-1.611142005351293e-05,-0.011734211787250697,0.004984026424226481,0.0,-1.052074850108526,0.1544277794087123,276728.0,35123.0,0.0,19.932440610015984,34.020000000000195,3.0,4.0
168,84.0,6366609.2929200325,2282909.3161674137,321769.61980109813,-2416.3682212483964,6200.608804351008,3819.0163184428206,5.168013573483013e-06,-1.044293694515996,0.15137954663269532,-1.437959679262346e-05,-0.011985826457790104,0.004994352838150402,0.0,-1.05264681442677,0.15463478464367555,276728.0,35123.0,0.0,19.932440610015984,34.0000000000002,3.0,4.0
169,84.5,6365401.108809409,2286009.620569589,323679.1279603195,-2420.455341177018,6199.143263788982,3818.8097546401737,4.6087358852158325e-06,-1.0447754628372112,0.15157942650938713,-1.2832649001020814e-05,-0.012213708893105316,0.005005007418389709,0.0,-1.0532191335034236,0.15484234114235798,276728.0,35123.0,0.0,19.932440610015984,33.9800000000002,3.0,4.0
170,85.0,6364190.88113882,2289109.1922014835,325588.5328376396,-2424.541683503425,6197.675733666147,3818.601965107645,4.109636833590672e-06,-1.0452661261591174,0.15177973562935973,-1.1451002073543881e-05,-0.01242009497454171,0.005015961148739595,0.0,-1.0537918072184356,0.15505045109179902,276728.0,35123.0,0.0,19.932440610015984,33.96000000000021,3.0,4.0
171,85.5,6362978.610297069,2292208.0300683165,327497.8338201934,-2428.627246916171,6196.206214454968,3818.39294991275,3.664284463024496e-06,-1.045764845473286,0.15198048569175635,-1.0217133502774708e-05,-0.012607021576300588,0.005027188065435142,0.0,-1.0543648354501793,0.15525911669052536,276728.0,35123.0,0.0,20.01729865011935,33.94000000000021,3.0,4.0
172,86.0,6361764.296673611,2295306.133175544,329407.0302951498,-2432.71203010406,6194.734706628553,3818.1827091233977,3.266928819253279e-06,-1.046270861377748,0.15218168738530122,-9.115360366226233e-06,-0.012776342599900585,0.005038664943593143,0.0,-1.0549382180754479,0.15546834014862587,276728.0,35123.0,0.0,20.01729865011935,33.920000000000215,3.0,4.0
173,86.5,6360547.940658559,2298403.500528858,331316.12164971145,-2436.796031756146,6193.261210660645,3817.971242807892,2.912430325733861e-06,-1.0467834869106325,0.15238335049496082,-8.131648482722489e-06,-0.01292974397215391,0.005050371015318395,0.0,-1.0555119549694465,0.1556781236878271,276728.0,35123.0,0.0,20.01729865011935,33.90000000000022,3.0,4.0
174,87.0,6359329.542642681,2301500.1311341883,333225.1072711154,-2440.8792505617344,6191.785727025626,3817.758551034929,2.5961955936108533e-06,-1.0473021009735273,0.15258548399762212,-7.253441072710834e-06,-0.013068757630701212,0.005062287716351547,0.0,-1.0560860460057875,0.1558884695415692,276728.0,35123.0,0.0,20.01729865011935,33.88000000000022,3.0,4.0
175,87.5,6358109.1030174,2304596.0239977012,335133.9865466329,-2444.9616852103804,6190.30825619852,3817.544633873599,2.314119905139927e-06,-1.0478261423043715,0.1527880961479007,-6.469504967723423e-06,-0.013194774529594628,0.00507439845843362,0.0,-1.0566604910564839,0.15609937995508266,276728.0,35123.0,0.0,20.01729865011935,33.86000000000023,3.0,4.0
176,88.0,6356886.622174795,2307691.1781258006,337042.7588635697,-2449.043334391892,6188.828798654988,3817.329491393387,2.0625356866950225e-06,-1.0483551039610568,0.15299119455508123,-5.769792605020566e-06,-0.013309056703571891,0.005086688424833181,0.0,-1.0572352899919426,0.15631085718546545,276728.0,35123.0,0.0,19.978508809107108,33.84000000000023,3.0,4.0
